     2.11           OBSERVATION DATA    G (GPS)             RINEX VERSION / TYPE
teqc  2012Sep13     UNAVCO Archive Ops  20121029 06:32:38UTCPGM / RUN BY / DATE
Solaris x86 5.10|AMD64|cc SC5.8 -xarch=amd64|=+|=+          COMMENT
BIT 2 OF LLI FLAGS DATA COLLECTED UNDER A/S CONDITION       COMMENT
AINP                                                        MARKER NAME
                                                            MARKER NUMBER
Miklius, Asta       USGS/HVO                                OBSERVER / AGENCY
4632120763          TRIMBLE NETRS       1.1-3               REC # / TYPE / VERS
60216820            TRM41249.00     NONE                    ANT # / TYPE
 -5476782.4978 -2500761.5324  2102828.7685                  APPROX POSITION XYZ
        0.0860        0.0000        0.0000                  ANTENNA: DELTA H/E/N
     1     1                                                WAVELENGTH FACT L1/2
     7    L1    L2    C1    P2    P1    S1    S2            # / TYPES OF OBSERV
    30.0000                                                 INTERVAL
RINEX file created by UNAVCO GPS Archive.                   COMMENT
For more information contact archive@unavco.org             COMMENT
Monument ID: 17048                                          COMMENT
UNAVCO 4-char name:   AINP                                  COMMENT
4-char name from Log or data file: AINP                     COMMENT
Monument location: 19.37265216 -155.458018672 1568.1289     COMMENT
Visit ID: 96385                                             COMMENT
                                                            COMMENT
NOTICE: If using these data for scientific purposes,        COMMENT
please acknowledge the source as Stanford University        COMMENT
and the USGS Hawaii Volcano Observatory.                    COMMENT
                                                            COMMENT
End of DB comments                                          COMMENT
 SNR is mapped to RINEX snr flag value [0-9]                COMMENT
  L1 & L2: min(max(int(snr_dBHz/6), 0), 9)                  COMMENT
  2012    10    28     0     0    0.0000000     GPS         TIME OF FIRST OBS
                                                            END OF HEADER
 12 10 28  0  0  0.0000000  0 10G06G22G29G21G18G31G03G30G16G14
 114140467.647 7  88940612.73045  21720208.764    21720205.9874
        47.600          35.5004
 106520105.040 8  83002651.97247  20270102.107    20270095.4044
        51.100          44.0004
 127260680.715 6  99164173.65943  24216902.254    24216904.0504
        38.000          22.5004
 122849973.502 7  95727232.65944  23377572.654    23377567.9444
        43.500          24.3004
 113861029.279 7  88722854.80945  21667033.399    21667027.3404
        47.900          35.7004
 131232548.751 6 102259155.12843  24972723.626    24972730.0524
        40.600          20.4004
 117983296.792 7  91935041.76444  22451474.820    22451476.0884
        43.200          29.1004
 111016873.086 8  86506652.71546  21125808.568    21125808.1944
        50.900          38.8004
 112422485.765 8  87601927.41146  21393287.661    21393285.4124
        49.900          38.0004
 123501271.514 5  96234787.87142  23501510.535    23501518.0154
        35.100          17.8004
 12 10 28  0  0 30.0000000  0 10G06G22G29G21G18G31G03G30G16G14
 114076834.438 7  88891028.58145  21708099.293    21708096.5754
        47.000          34.7004
 106514021.853 8  82997911.91147  20268944.564    20268937.5094
        51.600          44.5004
 127324436.963 6  99213853.68243  24229035.068    24229037.0394
        39.400          22.9004
 122891497.291 7  95759588.85344  23385474.539    23385470.0044
        43.200          26.2004
 113923932.754 7  88771870.48946  21679003.444    21678997.6204
        47.200          36.5004
 131273763.177 6 102291270.18043  24980566.627    24980573.0524
        40.300          20.1004
 117898603.083 7  91869046.91144  22435358.879    22435359.2084
        43.700          29.0004
 111068134.876 8  86546596.87646  21135563.499    21135563.3024
        50.800          38.9004
 112399949.968 8  87584367.10746  21388998.759    21388996.8034
        49.600          38.2004
 123432554.075 6  96181242.23742  23488434.907    23488440.7464
        37.200          17.4004
 12 10 28  0  1  0.0000000  0 10G06G22G29G21G18G31G03G30G16G14
 114013315.556 7  88841533.51645  21696012.049    21696009.8584
        45.800          35.1004
 106508451.252 8  82993571.26847  20267884.519    20267877.5814
        51.000          44.9004
 127388436.063 6  99263722.98443  24241213.907    24241215.9364
        41.100          22.8004
 122932954.261 7  95791892.94244  23393363.834    23393359.3584
        43.100          26.2004
 113987155.312 7  88821134.79546  21691034.382    21691028.6164
        47.300          36.4004
 131314708.049 6 102323175.19943  24988357.837    24988365.3174
        40.100          21.5004
 117814011.968 7  91803132.00544  22419261.528    22419261.7994
        42.700          29.9004
 111119872.424 8  86586911.74546  21145409.251    21145408.8194
        50.700          39.0004
 112377963.468 8  87567234.82746  21384815.030    21384812.7814
        49.300          38.0004
 123363827.650 6  96127689.65643  23475356.913    23475361.4634
        37.300          18.3004
 12 10 28  0  1 30.0000000  0 10G06G22G29G21G18G31G03G30G16G14
 113949912.422 7  88792128.64745  21683947.133    21683944.4164
        46.300          35.5004
 106503392.709 8  82989629.62147  20266921.955    20266915.0174
        50.000          44.2004
 127452677.720 6  99313781.26643  24253438.101    24253440.5994
        40.100          22.8004
 122974343.665 7  95824144.42844  23401240.505    23401236.0294
        42.900          25.4004
 114050694.024 7  88870645.46946  21703125.013    21703119.6584
        47.000          36.0004
 131355381.343 6 102354868.61443  24996098.428    24996104.1504
        39.900          21.1004
 117729525.501 7  91737298.65445  22403184.865    22403184.3154
        43.300          31.0004
 111172083.057 8  86627595.27046  21155344.369    21155344.0544
        50.800          38.8004
 112356526.751 8  87550530.94546  21380735.528    21380733.5144
        49.500          38.5004
 123295094.493 6  96074131.82543  23462275.639    23462282.5924
        36.500          18.6004
 12 10 28  0  2  0.0000000  0 10G06G22G29G21G18G31G03G30G16G14
 113886627.741 7  88742816.07846  21671904.126    21671901.4674
        46.400          36.2004
 106498846.684 8  82986087.35347  20266056.802    20266049.8064
        50.200          44.2004
 127517162.120 6  99364028.71243  24265709.218    24265711.0714
        38.100          22.5004
 123015666.435 6  95856343.99544  23409101.827    23409098.5824
        41.600          24.3004
 114114547.284 7  88920401.23545  21715276.017    21715270.0174
        47.900          35.7004
 131395781.837 6 102386349.42843  25003786.954    25003792.6764
        39.400          21.7004
 117645146.038 7  91671548.67445  22387126.718    22387127.2234
        42.800          30.2004
 111224764.596 8  86668645.72846  21165369.306    21165369.1084
        50.000          38.6004
 112335640.815 8  87534256.24246  21376761.546    21376759.1214
        49.700          38.6004
 123226357.750 6  96020571.17442  23449195.344    23449202.0044
        37.400          17.8004
 12 10 28  0  2 30.0000000  0 10G06G22G29G21G18G31G03G30G16G14
 113823463.031 7  88693596.99045  21659883.763    21659881.6324
        47.500          35.9004
 106494812.196 8  82982943.67047  20265288.816    20265281.9374
        50.900          44.5004
 127581888.685 6  99414464.82343  24278025.998    24278027.8524
        39.000          22.2004
 123056922.404 7  95888491.49244  23416954.515    23416949.7464
        42.600          26.1004
 114178712.353 8  88970399.98746  21727486.591    21727480.2974
        48.100          36.3004
 131435908.221 6 102417616.66143  25011422.629    25011428.5854
        37.500          19.0004
 117560875.268 7  91605883.37845  22371090.681    22371090.4844
        44.100          30.6004
 111277914.214 8  86710060.91746  21175483.656    21175483.1074
        50.900          38.8004
 112315305.568 8  87518410.64146  21372892.011    21372889.2354
        49.100          38.3004
 123157619.967 6  95967009.79743  23436115.168    23436121.0074
        38.700          19.3004
 12 10 28  0  3  0.0000000  0 10G06G22G29G21G18G31G03G30G16G14
 113760420.332 7  88644472.98046  21647886.901    21647884.4184
        47.300          36.0004
 106491288.519 8  82980198.02947  20264617.983    20264611.2214
        51.100          44.0004
 127646857.319 6  99465089.56543  24290390.159    24290391.7794
        39.500          22.6004
 123098111.610 6  95920586.95044  23424791.787    23424786.6084
        41.700          24.2004
 114243187.718 7  89020640.51146  21739755.141    21739749.9624
        46.300          36.3004
 131475759.237 6 102448669.32343  25019005.625    25019012.1094
        38.100          19.3004
 117476715.740 7  91540304.75745  22355076.371    22355074.9424
        44.500          31.4004
 111331529.588 8  86751839.03046  21185686.232    21185685.9754
        51.100          39.6004
 112295521.787 8  87502994.75046  21369126.718    21369124.1764
        49.200          38.2004
 123088883.496 6  95913449.39243  23423034.291    23423039.8964
        40.100          19.0004
 12 10 28  0  3 30.0000000  0 10G06G22G29G21G18G31G03G30G16G14
 113697501.380 7  88595445.37945  21635913.745    21635910.7344
        47.900          35.4004
 106488274.998 8  82977849.89847  20264044.663    20264037.4334
        51.300          44.3004
 127712067.712 6  99515902.71643  24302799.330    24302800.8914
        38.600          22.3004
 123139233.606 7  95952630.03644  23432617.385    23432612.2064
        42.600          24.8004
 114307970.725 7  89071120.74845  21752082.959    21752077.5454
        46.300          35.8004
 131515332.579 5 102479505.59743  25026536.061    25026542.5454
        35.200          19.6004
 117392669.037 7  91474814.05245  22339081.822    22339081.7424
        45.100          31.5004
 111385607.655 8  86793977.67746  21195977.007    21195977.2784
        50.500          39.0004
 112276289.910 8  87488008.91546  21365467.109    21365464.5674
        49.500          38.5004
 123020151.557 6  95859892.50643  23409954.916    23409960.8144
        40.300          19.6004
 12 10 28  0  4  0.0000000  0 10G06G22G29G21G18G31G03G30G16G14
 113634708.779 7  88546516.22545  21623964.908    21623962.1324
        47.400          35.2004
 106485771.739 8  82975899.38747  20263567.905    20263560.8504
        51.100          44.2004
 127777520.484 6  99566904.71843  24315254.427    24315257.2194
        38.400          22.8004
 123180289.392 7  95984621.54344  23440430.785    23440425.6054
        42.400          25.8004
 114373059.524 7  89121839.28546  21764469.189    21764463.7164
        47.800          36.0004
 131554627.746 6 102510125.12642  25034013.677    25034019.2234
        36.000          17.4004
 117308738.134 7  91409413.58945  22323109.622    22323110.4214
        43.800          31.5004
 111440146.724 8  86836475.54546  21206355.730    21206355.5324
        50.600          39.8004
 112257610.574 8  87473453.61846  21361912.189    21361910.5854
        49.500          38.3004
 122951427.231 6  95806341.57243  23396877.270    23396882.6994
        39.900          19.6004
 12 10 28  0  4 30.0000000  0 10G06G22G29G21G18G31G03G30G16G14
 113572044.241 7  88497686.87745  21612040.071    21612037.5294
        46.300          35.7004
 106483778.384 8  82974346.19147  20263188.902    20263181.9054
        50.100          44.0004
 127843214.891 6  99618095.00843  24327755.856    24327758.6474
        37.200          22.6004
 123221278.944 6  96016561.43344  23448230.896    23448226.5374
        41.700          26.3004
 114438451.896 7  89172794.36546  21776913.148    21776907.6174
        46.800          36.3004
 131593642.952 6 102540526.50642  25041439.040    25041443.9424
        37.600          16.3004
 117224925.302 7  91344105.13845  22307161.046    22307161.2594
        44.900          31.7004
 111495143.816 8  86879330.32246  21216821.288    21216821.5604
        50.000          39.3004
 112239484.136 8  87459329.15246  21358462.916    21358460.3744
        49.300          38.9004
 122882713.195 6  95752798.69343  23383800.770    23383805.7894
        40.000          19.6004
 12 10 28  0  5  0.0000000  0 10G06G22G29G21G18G31G03G30G16G14
 113509509.391 7  88448958.56945  21600140.008    21600137.0564
        46.400          35.6004
 106482293.506 8  82973189.21547  20262906.119    20262899.2404
        49.700          43.5004
 127909150.479 6  99669473.21043  24340301.912    24340305.0554
        39.000          22.2004
 123262201.872 6  96048449.42644  23456017.444    23456013.1444
        41.500          26.5004
 114504145.211 7  89223983.94946  21789413.966    21789408.6694
        47.000          36.5004
 131632376.461 6 102570708.31442  25048809.394    25048814.6474
        36.500          16.3004
 117141232.209 7  91278889.98945  22291233.967    22291233.8284
        44.600          31.6004
 111550596.073 8  86922539.76146  21227373.574    21227373.3184
        49.800          39.3004
 112221910.475 8  87445635.40546  21355118.520    21355116.2724
        49.600          38.5004
 122814011.710 6  95699265.59643  23370727.092    23370731.4664
        39.900          20.9004
 12 10 28  0  5 30.0000000  0 10G06G22G29G21G18G31G03G30G16G14
 113447107.065 7  88400333.52845  21588265.395    21588262.2674
        46.500          35.6004
 106481317.379 8  82972428.67147  20262720.558    20262713.1514
        50.200          43.4004
 127975328.022 6  99721039.95343  24352894.122    24352899.6684
        37.400          22.0004
 123303058.910 6  96080286.07144  23463792.287    23463787.8114
        41.700          26.7004
 114570138.284 8  89275407.10246  21801972.208    21801967.1454
        49.200          36.3004
 131670827.694 6 102600670.30842  25056126.313    25056132.3284
        36.000          17.8004
 117057661.433 7  91213770.14745  22275331.511    22275330.6104
        45.100          30.9004
 111606501.369 8  86966102.21346  21238012.179    21238011.6304
        49.300          39.1004
 112204891.038 8  87432373.53146  21351880.168    21351878.1544
        49.300          37.7004
 122745326.680 6  95645745.32243  23357655.907    23357660.4574
        40.100          20.1004
 12 10 28  0  6  0.0000000  0 10G06G22G29G21G18G31G03G30G16G14
 113384837.747 7  88351812.11446  21576416.138    21576412.5414
        47.000          36.4004
 106480847.887 8  82972062.90447  20262630.974    20262623.9784
        51.500          44.4004
 128041745.446 6  99772793.62243  24365534.689    24365538.5944
        39.200          22.2004
 123343848.901 7  96112070.47044  23471554.584    23471549.8154
        42.500          24.3004
 114636426.778 8  89327060.47846  21814586.583    21814581.2874
        49.300          36.0004
 131708993.970 6 102630410.14543  25063389.838    25063394.8574
        36.500          19.0004
 116974214.293 7  91148746.63845  22259451.766    22259451.5104
        45.100          31.2004
 111662855.976 8  87010014.78746  21248736.105    21248736.2014
        48.600          38.9004
 112188424.556 8  87419542.53746  21348746.310    21348744.0614
        50.300          38.4004
 122676658.914 6  95592238.47243  23344588.459    23344592.4814
        40.600          20.4004
 12 10 28  0  6 30.0000000  0 10G06G22G29G21G18G31G03G30G16G14
 113322704.911 7  88303397.06746  21564591.994    21564589.3934
        46.300          36.9004
 106480885.850 8  82972092.54747  20262637.982    20262630.6924
        51.300          44.2004
 128108403.934 6  99824735.13943  24378219.298    24378222.6174
        39.400          22.0004
 123384573.348 6  96143803.79244  23479303.565    23479299.6164
        41.700          25.9004
 114703010.204 7  89378943.66346  21827256.938    21827252.2274
        47.500          36.4004
 131746874.819 5 102659927.63743  25070597.473    25070604.1914
        34.200          18.6004
 116890894.046 7  91083822.02345  22243595.895    22243595.3464
        46.200          32.1004
 111719658.409 8  87054276.29446  21259545.461    21259545.7334
        48.200          39.1004
 112172512.993 8  87407143.94846  21345718.538    21345716.4064
        50.700          38.3004
 122608012.671 6  95538748.42243  23331525.029    23331529.4624
        41.200          20.9004
 12 10 28  0  7  0.0000000  0 10G06G22G29G21G18G31G03G30G16G14
 113260708.989 7  88255088.71446  21552794.873    21552791.3354
        46.600          36.5004
 106481428.972 8  82972515.82547  20262741.367    20262733.9614
        51.600          43.9004
 128175301.895 6  99876863.27243  24390951.233    24390953.0284
        39.800          22.3004
 123425231.053 6  96175485.09344  23487041.154    23487036.9124
        41.700          26.3004
 114769884.645 7  89431053.60445  21839983.212    21839977.2124
        47.100          35.9004
 131784467.642 5 102689220.66842  25077751.644    25077757.5424
        34.200          16.9004
 116807701.498 7  91018996.90745  22227765.287    22227764.0934
        45.000          32.2004
 111776904.408 8  87098883.44846  21270438.804    21270439.0754
        48.800          38.3004
 112157154.948 8  87395176.65546  21342796.446    21342794.1394
        50.700          38.5004
 122539389.220 6  95485276.14843  23318466.254    23318470.4524
        41.100          21.8004
 12 10 28  0  7 30.0000000  0 11G06G22G29G21G18G31G03G30G16G14G19
 113198853.574 7  88206889.83046  21541023.378    21541020.2504
        46.800          36.5004
 106482478.300 8  82973333.55547  20262941.133    20262933.9024
        49.500          43.8004
 128242440.698 6  99929179.09643  24403727.132    24403729.4554
        39.600          22.6004
 123465823.722 6  96207115.74244  23494765.772    23494761.1794
        41.900          25.3004
 114837049.862 7  89483390.13945  21852763.843    21852758.3124
        46.600          35.8004
 131821772.391 5 102718289.20042  25084850.132    25084855.6194
        34.300          16.9004
 116724640.364 7  90954274.16645  22211959.176    22211958.0994
        45.800          31.7004
 111834592.949 8  87143835.43346  21281416.730    21281416.9434
        49.300          38.4004
 112142352.422 8  87383642.24346  21339979.673    21339976.9554
        51.200          38.1004
 122470793.070 7  95431825.13243  23305412.768    23305416.2054
        42.300          22.9004
 129811876.747 5                  24702378.821
        34.700
 12 10 28  0  8  0.0000000  0 11G06G22G29G21G18G31G03G30G16G14G19
 113137136.025 7  88158798.37446  21529279.130    21529275.6514
        47.800          36.3004
 106484028.493 8  82974541.56147  20263236.056    20263228.8844
        49.600          43.8004
 128309815.172 6  99981678.51643  24416547.093    24416550.9984
        37.500          21.1004
 123506346.660 6  96238692.05744  23502476.901    23502472.6014
        41.900          24.3004
 114904498.808 8  89535947.76645  21865598.828    21865593.4734
        48.700          35.3004
 131858783.396 5 102747128.91842  25091893.936    25091899.5994
        35.000          15.6004
 116641708.239 7  90889651.98245  22196176.960    22196176.3524
        46.400          32.7004
 111892716.812 8  87189126.63546  21292477.399    21292477.9054
        49.800          38.6004
 112128100.457 8  87372536.83046  21337267.108    21337264.8014
        50.700          37.2004
 122402222.512 6  95378394.05743  23292363.540    23292367.7974
        41.600          22.0004
 129732175.231 6                  24687211.078
        39.500
 12 10 28  0  8 30.0000000  0 11G06G22G29G21G18G31G03G30G16G14G19
 113075566.368 7  88110822.14946  21517562.572    21517559.3264
        46.600          36.7004
 106486086.737 8  82976145.46747  20263627.891    20263620.1924
        50.700          43.4004
 128377432.976 6 100034367.58343  24429415.240    24429418.3254
        38.700          21.7004
 123546808.073 7  96270220.41844  23510176.481    23510171.8294
        42.100          25.9004
 114972237.013 8  89588730.77745  21878488.982    21878483.6274
        48.400          35.5004
 131895507.033 5 102775744.69742  25098882.271    25098887.4074
        34.800          17.4004
 116558915.222 7  90825138.17945  22180421.567    22180420.6664
        45.100          30.6004
 111951281.094 8  87234761.02246  21303621.807    21303622.4304
        48.800          38.5004
 112114407.476 8  87361867.00446  21334661.445    21334659.1374
        50.600          38.1004
 122333688.164 7  95324991.18243  23279321.360    23279325.9104
        42.000          22.6004
 129652378.690 6 101027837.24443  24672027.243    24672029.6244
        38.100          23.2004
 12 10 28  0  9  0.0000000  0 11G06G22G29G21G18G31G03G30G16G14G19
 113014143.883 7  88062960.60545  21505874.451    21505871.1474
        47.100          35.7004
 106488649.634 8  82978142.59847  20264115.427    20264107.9614
        51.700          43.8004
 128445291.346 6 100087244.06643  24442328.687    24442331.7134
        40.300          20.6004
 123587205.330 6  96301698.82144  23517863.095    23517859.0294
        40.500          24.3004
 115040259.696 8  89641735.47145  21891433.582    21891427.5234
        48.600          34.9004
 131931939.265 5 102804133.27742  25105813.305    25105819.8474
        34.200          17.4004
 116476260.897 7  90760732.46145  22164692.640    22164691.5644
        44.100          30.9004
 112010280.345 8  87280734.33946  21314848.915    21314849.7144
        48.600          38.9004
 112101271.234 8  87351630.98946  21332161.595    21332158.7014
        50.800          38.5004
 122265190.081 6  95271616.62443  23266285.901    23266290.5104
        41.400          22.0004
 129572484.975 6 100965582.49543  24656823.485    24656826.5114
        37.900          22.6004
 12 10 28  0  9 30.0000000  0 11G06G22G29G21G18G31G03G30G16G14G19
 112952868.990 7  88015214.07846  21494213.940    21494210.9884
        46.400          36.2004
 106491714.747 8  82980531.07547  20264698.299    20264691.1864
        50.700          43.5004
 128513388.182 6 100140306.37743  24455286.604    24455290.3344
        38.400          20.9004
 123627537.690 6  96333126.61944  23525538.792    23525533.5544
        41.100          25.8004
 115108562.668 7  89694958.56645  21904431.161    21904425.3364
        47.600          35.5004
 131968077.175 6 102832292.59942  25112690.795    25112696.4004
        37.100          17.4004
 116393746.209 7  90696435.56245  22148990.969    22148990.0094
        44.600          32.6004
 112069710.249 7  87327043.23146  21326158.189    21326159.1634
        47.500          38.1004
 112088690.039 8  87341827.48846  21329767.536    21329765.3454
        50.200          37.9004
 122196729.598 6  95218271.31043  23253257.218    23253262.2954
        40.500          21.1004
 129492493.741 6 100903251.77344  24641601.911    24641603.8824
        38.900          24.6004
 12 10 28  0 10  0.0000000  0 11G06G22G29G21G18G31G03G30G16G14G19
 112891744.044 7  87967584.38046  21482582.404    21482579.1594
        46.400          36.0004
 106495281.556 8  82983310.48147  20265377.201    20265370.2634
        50.800          43.8004
 128581723.451 6 100193554.46443  24468290.900    24468293.5754
        38.000          21.1004
 123667804.717 6  96364503.51744  23533201.366    23533197.4764
        40.400          24.4004
 115177143.857 8  89748398.45846  21917482.375    21917476.3754
        48.300          36.2004
 132003919.810 5 102860221.85542  25119512.474    25119517.2584
        34.400          17.4004
 116311373.669 7  90632249.42145  22133316.015    22133315.1734
        44.700          31.9004
 112129568.295 7  87373685.73746  21337548.439    21337549.5904
        47.000          38.1004
 112076664.178 8  87332456.70546  21327479.164    21327476.6224
        50.300          37.7004
 122128309.410 6  95164957.39543  23240237.553    23240241.0484
        41.600          22.0004
 129412405.999 6 100840845.80143  24626362.073    24626363.6344
        37.900          21.7004
 12 10 28  0 10 30.0000000  0 11G06G22G29G21G18G31G03G30G16G14G19
 112830771.648 7  87920073.56446  21470979.392    21470975.9134
        46.800          36.0004
 106499349.782 8  82986480.61047  20266151.258    20266143.9684
        51.100          43.6004
 128650297.186 6 100246988.42743  24481340.334    24481342.8324
        38.300          21.7004
 123708007.591 6  96395830.41344  23540851.113    23540847.2234
        40.500          25.8004
 115246002.377 7  89802054.44345  21930584.693    21930579.2794
        46.900          35.6004
 132039466.578 5 102887920.46743  25126276.946    25126282.4924
        35.300          19.0004
 116229145.901 7  90568176.08545  22117668.374    22117667.2974
        44.500          32.2004
 112189852.473 7  87420660.29346  21349020.614    21349021.3554
        47.600          37.4004
 112065194.729 8  87323519.49646  21325296.494    21325294.3044
        49.300          38.0004
 122059933.307 7  95111677.85943  23227225.892    23227229.1524
        42.000          20.9004
 129332223.330 5 100778365.94343  24611101.846    24611105.5174
        35.400          20.9004
 12 10 28  0 11  0.0000000  0 11G06G22G29G21G18G31G03G30G16G14G19
 112769953.449 7  87872682.88146  21459405.906    21459402.4264
        47.000          36.8004
 106503918.091 8  82990040.41447  20267020.824    20267013.2414
        50.400          43.5004
 128719108.775 6 100300607.65543  24494434.275    24494437.4774
        37.900          20.4004
 123748146.018 6  96427107.10944  23548489.941    23548485.0554
        40.900          26.4004
 115315135.309 8  89855924.26845  21943741.168    21943734.6414
        48.800          35.1004
 132074715.462 5 102915387.06343  25132984.530    25132991.2494
        35.100          18.3004
 116147064.486 7  90504216.79245  22102047.565    22102047.2504
        44.500          31.9004
 112250559.246 7  87467964.14546  21360573.241    21360573.8644
        47.600          37.3004
 112054281.230 8  87315015.49346  21323219.782    21323217.5924
        49.900          38.0004
 121991603.807 6  95058434.61643  23214222.729    23214226.2244
        41.400          22.3004
 129251946.288 6 100715812.47143  24595826.081    24595829.6344
        37.200          19.9004
 12 10 28  0 11 30.0000000  0 11G06G22G29G21G18G31G03G30G16G14G19
 112709292.303 7  87825414.58246  21447862.200    21447859.5404
        46.800          36.9004
 106508986.973 8  82993990.28047  20267985.423    20267977.7234
        51.900          43.6004
 128788158.832 6 100354412.77843  24507574.416    24507575.8594
        38.700          19.6004
 123788221.816 6  96458334.99044  23556116.287    23556111.1664
        41.900          26.0004
 115384540.439 7  89910006.19946  21956947.673    21956942.1424
        47.300          36.0004
 132109666.217 5 102942621.33442  25139635.314    25139642.1504
        35.200          17.8004
 116065133.051 7  90440374.36345  22086456.772    22086456.5754
        43.400          30.8004
 112311686.904 7  87515595.95946  21372205.255    21372205.5264
        47.800          38.2004
 112043924.531 8  87306945.36646  21321249.130    21321247.1154
        50.000          38.3004
 121923324.455 6  95005230.46843  23201228.935    23201232.8994
        41.200          22.9004
 129171576.715 5 100653186.96643  24580531.436    24580535.3414
        35.000          18.6004
 12 10 28  0 12  0.0000000  0 11G06G22G29G21G18G31G03G30G16G14G19
 112648788.583 8  87778268.94446  21436349.086    21436345.5484
        48.200          36.7004
 106514553.787 8  82998328.14247  20269044.322    20269037.1504
        50.300          43.3004
 128857445.304 6 100408402.07143  24520759.052    24520760.6714
        38.900          19.9004
 123828232.682 6  96489512.26944  23563730.038    23563724.9764
        41.300          26.2004
 115454214.635 7  89964297.79145  21970206.121    21970200.7074
        47.000          34.0004
 132144316.191 5 102969621.24743  25146229.260    25146235.4514
        33.800          18.3004
 115983352.518 7  90376649.51845  22070894.611    22070893.5934
        44.400          32.1004
 112373231.266 8  87563552.47446  21383917.128    21383917.2234
        48.000          38.2004
 112034123.300 8  87299308.06146  21319383.909    21319382.0704
        50.500          38.6004
 121855096.570 6  94952066.41243  23188245.510    23188248.5364
        40.900          22.3004
 129091114.182 6 100590488.97943  24565220.798    24565223.7654
        37.300          21.8004
 12 10 28  0 12 30.0000000  0 11G06G22G29G21G18G31G03G30G16G14G19
 112588445.613 7  87731248.57446  21424865.746    21424862.4424
        47.900          37.3004
 106520618.148 8  83003053.70847  20270198.078    20270190.6714
        50.700          43.7004
 128926968.512 6 100462575.89243  24533989.577    24533991.1974
        37.600          19.9004
 123868179.840 6  96520639.87643  23571330.927    23571326.5104
        40.200          22.9004
 115524156.351 7  90018797.84245  21983516.023    21983509.7884
        46.800          34.4004
 132178664.424 5 102996385.97543  25152765.687    25152771.9374
        34.200          18.3004
 115901725.466 7  90313044.26545  22055361.086    22055360.5954
        44.300          32.6004
 112435189.796 8  87611831.72446  21395707.384    21395708.0074
        48.000          37.5004
 112024877.988 8  87292103.94746  21317624.100    21317622.4964
        49.100          38.6004
 121786923.695 6  94898945.19943  23175273.122    23175275.0344
        40.900          22.8004
 129010560.355 6 100527719.84743  24549892.589    24549894.8534
        38.200          20.6004
 12 10 28  0 13  0.0000000  0 11G06G22G29G21G18G31G03G30G16G14G19
 112528264.638 8  87684354.42646  21413413.547    21413409.8914
        48.600          36.6004
 106527178.916 8  83008166.08047  20271446.853    20271438.6844
        51.300          43.7004
 128996727.744 6 100516933.59743  24547265.065    24547267.2124
        40.200          21.3004
 123908063.508 6  96551718.06343  23578919.897    23578915.3044
        40.700          23.0004
 115594363.028 7  90073504.34845  21996875.752    21996869.7524
        47.900          34.9004
 132212709.887 5 103022914.78443  25159244.511    25159251.3474
        34.900          18.3004
 115820253.876 7  90249560.15045  22039857.650    22039856.2804
        44.600          32.4004
 112497559.709 8  87660431.53046  21407575.917    21407576.5394
        49.300          37.6004
 112016188.484 8  87285332.92446  21315970.910    21315968.7784
        49.900          38.5004
 121718808.420 6  94845868.89443  23162309.756    23162312.7824
        41.200          22.9004
 128929915.972 6 100464880.15843  24534546.052    24534548.0234
        37.900          19.6004
 12 10 28  0 13 30.0000000  0 11G06G22G29G21G18G31G03G30G16G14G19
 112468248.209 8  87637588.50646  21401992.504    21401989.0834
        48.300          36.2004
 106534235.344 8  83013664.68547  20272789.425    20272781.8424
        50.300          43.3004
 129066722.926 6 100571475.13643  24560585.101    24560587.0144
        39.200          21.3004
 123947884.056 6  96582747.04143  23586498.931    23586493.7524
        40.400          22.8004
 115664832.437 7  90128415.57145  22010285.415    22010280.4704
        47.500          34.6004
 132246451.225 5 103049206.64743  25165665.035    25165672.3404
        34.600          18.6004
 115738940.747 7  90186199.51445  22024383.954    22024383.1114
        43.800          31.3004
 112560338.208 8  87709349.70946  21419522.484    21419523.1074
        48.500          37.4004
 112008054.836 8  87278995.03546  21314423.005    21314420.8744
        49.700          38.6004
 121650753.825 6  94792839.83443  23149358.772    23149361.5644
        41.600          22.0004
 128849182.062 6 100401970.74943  24519182.566    24519183.7164
        36.100          19.3004
 12 10 28  0 14  0.0000000  0 11G06G22G29G21G18G31G03G30G16G14G19
 112408399.242 8  87590953.06546  21390604.019    21390600.3644
        49.000          36.8004
 106541787.572 8  83019549.63447  20274226.418    20274218.8944
        50.200          43.7004
 129136954.065 6 100626200.53743  24573949.262    24573952.4634
        38.400          21.1004
 123987642.678 6  96613727.75644  23594064.543    23594059.5404
        39.900          24.2004
 115735562.868 8  90183530.18345  22023745.024    22023739.4344
        48.400          34.0004
 132279888.131 6 103075261.27443  25172028.143    25172034.9784
        36.300          19.9004
 115657788.853 7  90122964.53345  22008941.120    22008939.6334
        44.900          32.0004
 112623523.171 8  87758584.61246  21431546.524    21431546.9714
        49.900          37.4004
 112000477.680 8  87273090.77746  21312981.092    21312978.9604
        50.200          38.6004
 121582763.442 7  94739860.81544  23136421.557    23136423.7044
        42.200          25.6004
 128768360.570 5 100338993.10943  24503802.952    24503804.3954
        35.700          18.6004
 12 10 28  0 14 30.0000000  0 11G06G22G29G21G18G31G03G30G16G14G19
 112348718.521 8  87544448.73046  21379246.755    21379243.9204
        48.300          36.8004
 106549832.800 8  83025818.73347  20275757.184    20275749.7784
        49.900          43.4004
 129207420.185 6 100681109.06843  24587358.535    24587361.8544
        38.200          19.9004
 124027338.454 6  96644659.51243  23601617.933    23601614.0434
        39.300          22.6004
 115806551.547 7  90238846.03445  22037253.720    22037248.1894
        47.300          34.0004
 132313018.469 6 103101077.02143  25178333.073    25178339.2644
        36.500          19.6004
 115576799.331 7  90059856.03745  21993529.059    21993527.1624
        44.900          31.6004
 112687110.831 8  87808133.29446  21443647.162    21443647.3754
        50.300          38.0004
 111993456.462 8  87267619.71946  21311645.166    21311643.0934
        49.900          38.8004
 121514839.263 6  94686933.38844  23123495.630    23123497.3674
        41.600          25.0004
 128687451.561 5 100275947.27942  24488406.418    24488407.9204
        35.400          17.8004
 12 10 28  0 15  0.0000000  0 11G06G22G29G21G18G31G03G30G16G14G19
 112289208.938 8  87498077.73446  21367922.533    21367918.8774
        48.300          36.3004
 106558371.485 8  83032472.33847  20277381.986    20277374.5214
        50.400          43.7004
 129278121.102 6 100736200.51143  24600812.340    24600814.0764
        38.400          18.6004
 124066972.266 6  96675542.97743  23609160.110    23609155.9274
        39.400          23.3004
 115877796.483 7  90294361.55145  22050810.939    22050805.9364
        47.800          34.4004
 132345841.318 5 103126653.18743  25184578.355    25184585.4254
        35.300          18.3004
 115495974.992 7  89996876.26245  21978148.450    21978147.0814
        45.500          32.7004
 112751098.665 8  87857993.80546  21455823.376    21455824.3514
        49.200          37.8004
 111986990.805 8  87262581.55746  21310414.977    21310412.7284
        50.000          39.5004
 121446984.529 7  94634060.05244  23110582.810    23110584.9574
        42.200          25.6004
 128606456.528 5 100212834.35742  24472993.875    24472994.3224
        35.700          17.8004
 12 10 28  0 15 30.0000000  0 11G06G22G29G21G18G31G03G30G16G14G19
 112229873.248 8  87451842.24846  21356631.394    21356627.6214
        48.200          37.0004
 106567403.149 8  83039510.07847  20279100.721    20279093.1394
        49.900          43.7004
 129349057.240 6 100791475.30443  24614311.186    24614313.6264
        37.300          19.6004
 124106545.206 6  96706379.00444  23616691.063    23616686.1184
        39.600          24.5004
 115949295.715 7  90350075.23445  22064417.096    22064411.7414
        47.700          34.2004
 132378356.567 5 103151989.69842  25190765.769    25190772.7224
        35.400          17.8004
 115415319.145 7  89934027.77545  21962800.257    21962798.6534
        44.700          32.6004
 112815484.858 8  87908164.73346  21468075.672    21468076.6464
        48.900          37.7004
 111981081.564 8  87257976.97246  21309290.068    21309288.1704
        49.200          39.1004
 121379202.873 7  94581243.65443  23097683.400    23097686.0744
        42.100          23.6004
 128525377.253 6 100149655.81443  24457564.367    24457565.9274
        36.500          18.6004
 12 10 28  0 16  0.0000000  0 11G06G22G29G21G18G31G03G30G16G14G19
 112170712.229 7  87405742.86946  21345373.270    21345369.4394
        47.100          36.4004
 106576925.311 8  83046930.02647  20280913.115    20280905.5914
        50.500          43.4004
 129420226.779 6 100846931.92743  24627854.189    24627856.6294
        37.200          20.1004
 124146056.262 6  96737166.80743  23624209.636    23624204.1644
        40.500          22.5004
 116021046.351 7  90405984.79945  22078070.923    22078064.6894
        46.900          32.8004
 132410561.889 5 103177084.59342  25196895.674    25196901.1624
        35.100          17.4004
 115334832.836 7  89871311.40345  21947483.647    21947482.2774
        46.400          33.3004
 112880264.979 8  87958642.61246  21480403.277    21480403.8414
        48.800          38.1004
 111975727.522 8  87253805.00146  21308271.237    21308269.5164
        49.100          38.8004
 121311496.055 7  94528485.58144  23084798.430    23084800.9874
        42.200          26.1004
 128444213.516 6 100086411.51043  24442119.429    24442120.4624
        36.700          19.6004
 12 10 28  0 16 30.0000000  0 11G06G22G29G21G18G31G03G30G16G14G19
 112111728.648 8  87359781.74946  21334149.023    21334145.3674
        48.500          36.9004
 106586937.732 8  83054731.98247  20282818.392    20282810.6924
        50.300          43.3004
 129491629.844 6 100902570.56643  24641441.902    24641444.4004
        38.100          18.6004
 124185506.532 6  96767907.26743  23631717.226    23631710.8154
        39.800          22.5004
 116093046.536 7  90462088.81645  22091771.831    22091766.8864
        46.300          34.4004
 132442456.651 5 103201937.61143  25202963.417    25202970.6044
        35.700          18.6004
 115254519.106 7  89808729.50445  21932200.773    21932199.4034
        46.400          34.0004
 112945436.917 8  88009425.80346  21492805.107    21492805.9654
        49.200          37.3004
 111970929.069 8  87250065.96046  21307358.194    21307355.8864
        50.000          38.3004
 121243867.513 6  94475788.49344  23071928.494    23071931.3444
        41.600          24.0004
 128362967.546 5 100023103.07542  24426657.558    24426659.2954
        34.300          17.4004
 12 10 28  0 17  0.0000000  0 11G06G22G29G21G18G31G03G30G16G14G19
 112052924.419 7  87313960.39146  21322958.925    21322955.1524
        47.200          37.0004
 106597439.031 8  83062914.88447  20284816.553    20284808.7364
        50.800          43.4004
 129563265.614 6 100958390.53043  24655074.516    24655075.7844
        38.900          19.9004
 124224895.949 6  96798600.27043  23639212.417    23639206.9454
        39.000          22.5004
 116165293.732 7  90518385.30445  22105520.064    22105514.9434
        46.400          34.2004
 132474039.304 5 103226547.34143  25208973.922    25208981.7544
        35.400          18.6004
 115174379.989 7  89746283.66945  21916950.035    21916948.9004
        44.500          33.1004
 113010997.370 8  88060511.73446  21505280.545    21505281.5784
        49.400          37.1004
 111966685.702 8  87246759.45446  21306551.536    21306548.8184
        50.300          39.0004
 121176320.185 7  94423154.68043  23059073.611    23059077.3414
        42.100          23.9004
 128281639.675 5  99959730.90743  24411182.308    24411183.5174
        35.600          18.6004
 12 10 28  0 17 30.0000000  0 11G06G22G29G21G18G31G03G30G16G14G19
 111994301.209 7  87268280.08046  21311803.305    21311799.0054
        47.000          37.2004
 106608427.622 8  83071477.49947  20286907.486    20286899.4344
        50.300          43.2004
 129635133.377 6 101014391.25143  24668749.811    24668752.1344
        38.000          18.6004
 124264224.472 6  96829245.82443  23646697.203    23646691.6134
        40.900          22.8004
 116237785.354 7  90574872.24345  22119314.766    22119309.0014
        47.300          33.4004
 132505308.367 5 103250912.74743  25214923.861    25214931.2254
        35.400          19.3004
 115094417.329 7  89683975.33345  21901733.474    21901732.8074
        45.300          33.1004
 113076943.057 8  88111897.83846  21517829.682    21517830.9504
        49.100          37.4004
 111962996.548 8  87243884.79946  21305848.724    21305846.2994
        49.900          39.0004
 121108856.517 6  94370586.07344  23046236.033    23046238.7084
        41.400          25.8004
 128200230.686 6  99896295.51243  24395691.729    24395692.4704
        38.800          19.0004
 12 10 28  0 18  0.0000000  0 11G06G22G29G21G18G31G03G30G16G14G19
 111935861.640 8  87222742.86746  21300682.306    21300678.2994
        48.300          37.3004
 106619903.063 8  83080419.46047  20289090.509    20289083.3954
        50.100          43.1004
 129707233.096 6 101070572.72443  24682470.882    24682472.5014
        37.400          19.6004
 124303492.843 6  96859844.51743  23654169.280    23654163.9834
        39.600          22.5004
 116310519.436 7  90631548.12945  22133156.143    22133149.8504
        46.500          32.9004
 132536263.228 5 103275033.33142  25220814.668    25220821.0354
        35.600          17.8004
 115014634.146 7  89621806.85045  21886550.744    21886550.4294
        44.500          33.3004
 113143271.563 8  88163582.25346  21530451.833    21530453.2774
        49.400          37.4004
 111959862.343 8  87241442.57446  21305252.212    21305249.7874
        49.600          38.4004
 121041479.236 7  94318084.76144  23033414.566    23033417.2404
        42.700          25.6004
 128118742.107 6  99832798.11543  24380184.700    24380186.1444
        38.100          20.1004
 12 10 28  0 18 30.0000000  0 11G06G22G29G21G18G31G03G30G16G14G19
 111877607.845 8  87177350.41446  21289597.074    21289593.1254
        48.400          37.2004
 106631864.236 8  83089739.91347  20291367.057    20291359.2404
        50.500          43.6004
 129779564.180 6 101126934.48342  24696234.877    24696235.8514
        39.000          17.8004
 124342701.579 6  96890396.73143  23661629.955    23661625.7724
        39.500          22.5004
 116383493.437 7  90688410.96245  22147042.380    22147036.9074
        46.800          33.3004
 132566903.013 5 103298908.33143  25226645.877    25226652.4784
        35.500          19.0004
 114935032.982 7  89559780.18845  21871403.004    21871402.5724
        44.700          33.0004
 113209979.793 8  88215562.54846  21543146.146    21543147.2964
        49.600          36.8004
 111957282.544 8  87239432.34646  21304761.593    21304759.4614
        50.200          39.0004
 120974191.328 7  94265653.09444  23020609.352    23020611.9094
        42.900          25.7004
 128037175.101 6  99769239.57943  24364661.946    24364664.5624
        36.300          20.1004
 12 10 28  0 19  0.0000000  0 11G06G22G29G21G18G31G03G30G16G14G19
 111819547.727 8  87132108.87646  21278548.578    21278544.8644
        48.800          37.9004
 106644315.574 8  83099442.30547  20293736.286    20293728.9974
        50.300          43.7004
 129852131.854 6 101183480.54842  24710044.681    24710046.1254
        40.200          17.8004
 124381856.774 6  96920907.23143  23669080.403    23669076.4554
        39.200          22.8004
 116456711.173 7  90745463.70645  22160975.656    22160969.5974
        47.600          33.9004
 132597232.105 5 103322541.33643  25232416.417    25232423.9564
        35.500          19.0004
 114855621.774 7  89497901.55645  21856291.592    21856291.2184
        45.300          33.2004
 113277070.673 8  88267841.00746  21555913.227    21555914.9054
        48.900          36.8004
 111955262.637 8  87237858.40446  21304377.184    21304374.2904
        50.200          38.6004
 120907002.151 7  94213298.36344  23007823.542    23007825.6304
        43.200          26.6004
 127955536.698 6  99705625.38443  24349127.886    24349129.2124
        38.900          21.8004
 12 10 28  0 19 30.0000000  0 11G06G22G29G21G18G31G03G30G16G14G19
 111761666.377 8  87087006.64246  21267533.798    21267530.2014
        49.300          38.0004
 106657239.120 8  83109512.64847  20296195.413    20296188.1824
        50.400          43.6004
 129924919.003 6 101240197.68543  24723893.619    24723896.8214
        37.700          18.6004
 124420942.205 6  96951363.37643  23676518.513    23676514.3894
        40.300          22.9004
 116530153.732 7  90802691.64045  22174950.994    22174945.4634
        47.600          33.8004
 132627232.762 6 103345918.37642  25238125.563    25238132.4584
        36.000          17.4004
 114776386.321 7  89436159.87845  21841212.878    21841211.9774
        45.700          33.2004
 113344524.444 8  88320402.22746  21568749.448    21568750.8914
        50.000          36.9004
 111953785.067 7  87236707.05046  21304095.714    21304093.7584
        47.800          38.8004
 120839897.609 7  94161009.58044  22995053.603    22995055.7504
        43.200          26.5004
 127873811.063 6  99641943.27043  24333575.196    24333576.2884
        36.100          20.9004
 12 10 28  0 20  0.0000000  0 11G06G22G29G21G18G31G03G30G16G14G19
 111703988.127 8  87042062.67246  21256557.809    21256554.5644
        49.500          37.4004
 106670655.641 8  83119967.12647  20298748.348    20298740.8244
        50.600          43.5004
 129997946.249 6 101297101.89243  24737790.833    24737793.9774
        37.500          19.0004
 124459979.667 6  96981782.11343  23683946.576    23683942.5104
        39.200          22.9004
 116603840.528 7  90860109.89345  22188973.528    22188967.5284
        46.000          33.5004
 132656926.048 5 103369055.92042  25243776.635    25243783.3534
        34.600          16.3004
 114697350.559 7  89374573.79045  21826173.835    21826172.1134
        47.200          33.6004
 113412359.933 8  88373260.90346  21581658.120    21581659.4464
        49.300          36.6004
 111952871.757 8  87235995.39046  21303922.317    21303919.7174
        49.500          39.0004
 120772902.336 7  94108805.93644  22982304.434    22982306.9924
        42.700          26.0004
 127792021.146 6  99578211.06643  24318010.050    24318012.0804
        36.200          20.1004
 12 10 28  0 20 30.0000000  0 11G06G22G29G21G18G31G03G30G16G14G19
 111646498.448 8  86997265.62846  21245617.885    21245614.2884
        49.700          38.3004
 106684547.389 8  83130791.91047  20301391.994    20301384.5874
        50.600          43.3004
 130071197.171 6 101354180.39243  24751730.766    24751733.6164
        37.500          19.0004
 124498953.392 6  97012151.21443  23691363.427    23691359.3624
        40.400          22.6004
 116677752.516 7  90917703.62445  22203037.878    22203032.1714
        46.700          33.0004
 132686293.672 5 103391939.69242  25249365.812    25249370.2454
        34.600          16.3004
 114618500.340 7  89313132.28845  21811168.619    21811166.4874
        47.300          33.8004
 113480557.637 8  88426401.81746  21594636.186    21594637.5124
        49.000          37.1004
 111952505.834 8  87235710.26146  21303852.376    21303849.9514
        50.100          38.2004
 120706002.841 7  94056676.94244  22969573.190    22969575.6304
        43.200          25.8004
 127710152.097 6  99514417.23443  24302432.134    24302432.8154
        38.100          19.0004
 12 10 28  0 21  0.0000000  0 11G06G22G29G21G18G31G03G30G16G14G19
 111589205.383 8  86952621.79846  21234715.526    21234711.6954
        50.000          38.3004
 106698919.452 8  83141990.97647  20304126.602    20304119.1964
        50.800          43.5004
 130144676.870 6 101411437.15743  24765712.963    24765715.8144
        37.700          18.6004
 124537869.825 7  97042475.63943  23698770.662    23698765.4834
        42.200          22.6004
 116751893.680 8  90975475.93945  22217146.695    22217141.5164
        48.200          33.8004
 132715341.495 5 103414574.24843  25254893.374    25254899.4474
        35.800          18.6004
 114539844.297 7  89251842.09045  21796200.426    21796198.7634
        47.500          34.2004
 113549120.696 8  88479827.42146  21607683.087    21607684.8234
        49.700          36.8004
 111952692.671 8  87235855.85346  21303887.310    21303885.3544
        48.900          38.2004
 120639207.686 7  94004629.21644  22956863.059    22956863.5654
        43.900          26.4004
 127628210.807 6  99450567.05443  24286837.508    24286839.5964
        36.900          19.9004
 12 10 28  0 21 30.0000000  0 11G06G22G29G21G18G31G03G30G16G14G19
 111532110.302 8  86908132.23846  21223850.510    21223846.7374
        48.300          37.7004
 106713769.285 8  83153562.31647  20306952.792    20306945.2094
        50.400          42.9004
 130218383.879 6 101468871.06743  24779740.230    24779742.0254
        39.000          19.9004
 124576728.473 6  97072755.04943  23706165.065    23706159.8274
        41.800          22.9004
 116826260.812 7  91033424.32445  22231298.478    22231292.3024
        46.600          33.4004
 132744067.152 6 103436957.79743  25260359.349    25260366.1264
        37.700          19.6004
 114461383.591 7  89190704.10345  21781269.775    21781268.2884
        46.600          34.4004
 113618044.923 8  88533534.44346  21620799.222    21620800.9004
        48.600          37.1004
 111953431.036 8  87236431.20746  21304028.785    21304025.9504
        49.100          38.8004
 120572518.965 7  93952664.44044  22944171.876    22944173.5544
        43.900          25.6004
 127546197.572 6  99386660.85843  24271230.541    24271232.5714
        36.900          19.6004
 12 10 28  0 22  0.0000000  0 11G06G22G29G21G18G31G03G30G16G14G19
 111475216.417 8  86863799.44946  21213023.796    21213020.0824
        48.100          38.1004
 106729097.283 8  83165506.26747  20309869.473    20309861.8324
        50.800          42.9004
 130292318.849 6 101526482.60643  24793808.913    24793812.1744
        36.900          19.9004
 124615530.430 6  97102990.28443  23713548.351    23713543.8754
        41.600          22.8004
 116900852.621 7  91091547.79345  22245492.782    22245486.9584
        46.700          33.3004
 132772471.006 6 103459090.59143  25265765.279    25265771.7044
        39.400          21.8004
 114383122.076 7  89129721.33645  21766377.092    21766374.6674
        47.200          33.3004
 113687328.620 8  88587521.59146  21633983.797    21633984.9484
        49.900          36.7004
 111954721.288 7  87237436.60446  21304274.074    21304271.3564
        47.500          38.6004
 120505941.093 7  93900786.04044  22931502.533    22931503.3904
        43.000          26.3004
 127464114.761 6  99322700.42243  24255610.724    24255612.2844
        38.100          21.3004
 12 10 28  0 22 30.0000000  0 11G06G22G29G21G18G31G03G30G16G14G19
 111418525.697 7  86819624.97846  21202235.847    21202232.0164
        47.500          38.0004
 106744901.401 8  83177821.21547  20312876.690    20312869.3424
        50.400          43.9004
 130366480.960 6 101584271.13643  24807921.267    24807925.7584
        36.900          19.3004
 124654276.401 6  97133181.90543  23720920.744    23720916.8544
        39.200          22.8004
 116975666.462 7  91149844.28445  22259729.627    22259723.6274
        46.600          32.3004
 132800551.439 6 103480971.35643  25271107.816    25271115.4144
        37.500          20.1004
 114305061.922 7  89068895.45445  21751522.883    21751520.2834
        47.400          34.1004
 113756968.516 8  88641786.28846  21647235.752    21647236.7264
        48.900          36.5004
 111956562.883 8  87238871.60546  21304624.826    21304622.4024
        48.500          37.7004
 120439476.491 7  93848995.90044  22918855.189    22918855.7534
        43.400          27.5004
 127381963.219 6  99258686.41843  24239977.573    24239979.0754
        38.700          21.1004
 12 10 28  0 23  0.0000000  0 11G06G22G29G21G18G31G03G30G16G14G19
 111362039.698 7  86775610.02046  21191487.017    21191483.3034
        47.400          38.3004
 106761179.791 8  83190505.73447  20315974.477    20315967.0124
        49.700          43.9004
 130440868.787 6 101642235.48443  24822078.279    24822080.8954
        38.100          20.1004
 124692966.182 6  97163329.74643  23728283.449    23728279.6174
        38.900          22.5004
 117050699.981 7  91208311.95145  22274007.516    22274001.6344
        45.700          32.5004
 132828307.215 5 103502599.19742  25276388.769    25276396.7774
        35.900          16.3004
 114227204.843 7  89008227.81545  21736707.195    21736704.4774
        47.200          34.0004
 113826961.011 8  88696325.73646  21660555.325    21660555.9484
        48.700          37.1004
 111958954.894 7  87240735.50546  21305079.642    21305077.2174
        47.300          37.8004
 120373127.813 7  93797296.08944  22906228.868    22906228.9054
        44.100          26.7004
 127299743.376 6  99194619.21643  24224332.422    24224333.6904
        39.700          22.0004
 12 10 28  0 23 30.0000000  0 11G06G22G29G21G18G31G03G30G16G14G19
 111305760.460 8  86731756.17546  21180777.389    21180773.2064
        48.400          37.8004
 106777931.328 8  83203558.94147  20319161.995    20319154.5304
        50.300          43.5004
 130515481.877 6 101700375.44443  24836276.595    24836279.6214
        38.700          19.0004
 124731600.062 6  97193434.01743  23735636.038    23735630.9174
        40.300          22.8004
 117125950.718 7  91266948.87645  22288328.305    22288321.6024
        47.100          32.3004
 132855737.519 6 103523973.32442  25281610.386    25281616.9284
        36.200          16.9004
 114149553.261 7  88947720.31345  21721930.125    21721927.9354
        47.200          34.8004
 113897303.197 8  88751137.66446  21673941.416    21673942.1574
        49.000          37.0004
 111961896.912 8  87243027.99046  21305639.795    21305636.7844
        48.900          38.7004
 120306897.397 7  93745688.40844  22893624.552    22893625.5264
        43.700          27.3004
 127217456.916 6  99130500.12843  24208673.072    24208674.2814
        39.300          20.1004
 12 10 28  0 24  0.0000000  0 11G06G22G29G21G18G31G03G30G16G14G19
 111249690.554 8  86688065.43946  21170107.630    21170102.4514
        48.800          37.8004
 106795155.111 8  83216980.13147  20322439.706    20322432.0654
        50.200          43.2004
 130590319.997 6 101758690.67043  24850517.534    24850520.7364
        37.700          19.0004
 124770178.906 6  97223495.39843  23742976.672    23742972.6654
        40.700          22.3004
 117201416.748 7  91325753.55545  22302688.564    22302682.5064
        47.600          32.4004
 132882841.679 6 103545093.40142  25286767.798    25286775.4544
        37.400          16.9004
 114072110.221 7  88887375.30345  21707192.876    21707190.8624
        47.000          34.9004
 113967992.157 8  88806219.81446  21687392.440    21687393.5914
        48.600          37.3004
 111965388.292 7  87245748.53746  21306303.817    21306301.7444
        47.600          38.5004
 120240789.214 7  93694175.97244  22881043.957    22881045.1664
        43.900          26.9004
 127135105.678 6  99066330.55643  24193003.493    24193003.4134
        41.200          23.0004
 12 10 28  0 24 30.0000000  0 11G06G22G29G21G18G31G03G30G16G14G19
 111193832.426 8  86644539.71746  21159477.934    21159473.3414
        49.200          38.0004
 106812850.058 8  83230768.47147  20325806.728    20325799.4384
        50.800          42.6004
 130665382.610 5 101817180.85543  24864800.347    24864804.4284
        35.900          19.3004
 124808703.217 6  97253514.31543  23750307.406    23750303.8094
        41.100          22.8004
 117277095.650 7  91384724.11845  22317089.619    22317083.4444
        47.900          32.4004
 132909618.760 6 103565958.53942  25291863.831    25291870.3154
        38.600          16.9004
 113994878.041 8  88827194.59945  21692496.353    21692494.2214
        48.000          34.6004
 114039025.089 8  88861569.98246  21700909.997    21700911.1474
        49.100          37.6004
 111969429.044 8  87248897.16746  21307072.983    21307070.1484
        50.600          38.3004
 120174805.881 7  93642760.81644  22868487.389    22868488.5404
        44.100          27.0004
 127052690.567 6  99002111.21643  24177318.577    24177319.8454
        40.900          23.0004
 12 10 28  0 25  0.0000000  0 11G06G22G29G21G18G31G03G30G16G14G19
 111138187.862 8  86601180.41246  21148889.323    21148884.9054
        48.100          38.4004
 106831014.526 8  83244922.68547  20329263.326    20329255.4514
        50.600          43.0004
 130740668.655 6 101875845.18042  24879128.683    24879130.9474
        38.700          17.8004
 124847173.948 7  97283491.46743  23757629.604    23757624.7764
        42.100          22.6004
 117352985.061 7  91443858.71645  22331530.994    22331525.1704
        46.900          33.3004
 132936067.675 6 103586567.98142  25296896.179    25296902.5454
        36.800          17.4004
 113917858.883 7  88767179.88645  21677840.059    21677837.1654
        46.300          35.4004
 114110398.691 7  88917185.61746  21714491.921    21714493.1894
        47.300          37.0004
 111974017.852 8  87252472.85446  21307946.029    21307943.1944
        48.500          38.4004
 120108950.323 7  93591445.21344  22855955.382    22855956.3564
        42.900          28.3004
 126970212.876 6  98937843.13743  24161623.718    24161624.4584
        40.800          22.8004
 12 10 28  0 25 30.0000000  0 11G06G22G29G21G18G31G03G30G16G14G19
 111082759.557 7  86557989.62046  21138341.385    21138336.1474
        47.700          37.0004
 106849647.510 8  83259441.97547  20332808.952    20332801.1354
        51.200          43.5004
 130816177.982 6 101934683.46743  24893497.565    24893499.6534
        39.400          18.6004
 124885590.965 6  97313426.71143  23764939.347    23764934.6364
        41.400          22.0004
 117429083.188 8  91503155.94845  22346012.048    22346006.3994
        48.000          33.3004
 132962187.736 6 103606921.23142  25301866.817    25301872.8334
        38.600          17.4004
 113841055.745 7  88707333.49645  21663223.967    21663222.0704
        46.100          35.4004
 114182110.419 8  88973064.72346  21728138.598    21728140.3354
        48.600          36.9004
 111979154.777 8  87256475.64546  21308923.523    21308921.0984
        48.000          38.4004
 120043225.754 7  93540231.67944  22843448.414    22843449.2134
        44.600          27.9004
 126887674.205 6  98873527.54543  24145916.413    24145918.2674
        40.600          23.5004
 12 10 28  0 26  0.0000000  0 11G06G22G29G21G18G31G03G30G16G14G19
 111027549.434 8  86514968.83746  21127835.171    21127830.6954
        48.800          38.2004
 106868747.672 8  83274325.28847  20336443.880    20336436.0054
        51.100          43.5004
 130891910.107 6 101993695.33343  24907908.595    24907912.3254
        39.400          19.3004
 124923955.254 6  97343320.92843  23772239.298    23772234.3534
        41.100          21.5004
 117505387.700 8  91562613.98245  22360532.309    22360526.2504
        48.500          33.1004
 132987978.249 6 103627017.65442  25306774.680    25306782.5704
        38.300          17.4004
 113764470.800 7  88647657.11845  21648650.256    21648648.1824
        46.500          34.9004
 114254157.133 8  89029204.85346  21741848.568    21741850.1294
        48.300          36.5004
 111984838.832 8  87260904.76846  21310005.030    21310002.4884
        48.500          38.2004
