     2.11           OBSERVATION DATA    G (GPS)             RINEX VERSION / TYPE
teqc  2012Sep13     UNAVCO Archive Ops  20121029 06:28:30UTCPGM / RUN BY / DATE
Solaris x86 5.10|AMD64|cc SC5.8 -xarch=amd64|=+|=+          COMMENT
BIT 2 OF LLI FLAGS DATA COLLECTED UNDER A/S CONDITION       COMMENT
AHUP                                                        MARKER NAME
                                                            MARKER NUMBER
Miklius, Asta       Stanford/HVO                            OBSERVER / AGENCY
4542260456          TRIMBLE NETRS       1.1-2               REC # / TYPE / VERS
60121031            TRM41249.00     NONE                    ANT # / TYPE
 -5467762.7837 -2518810.5051  2103349.5793                  APPROX POSITION XYZ
        0.1110        0.0000        0.0000                  ANTENNA: DELTA H/E/N
     1     1                                                WAVELENGTH FACT L1/2
     7    L1    L2    C1    P2    P1    S1    S2            # / TYPES OF OBSERV
    30.0000                                                 INTERVAL
RINEX file created by UNAVCO GPS Archive.                   COMMENT
For more information contact archive@unavco.org             COMMENT
Monument ID: 13922                                          COMMENT
UNAVCO 4-char name:   AHUP                                  COMMENT
4-char name from Log or data file: AHUP                     COMMENT
Monument location: 19.379109962 -155.266099499 1104.8471    COMMENT
Visit ID: 88461                                             COMMENT
                                                            COMMENT
NOTICE: If using these data for scientific purposes,        COMMENT
please acknowledge the source as Stanford University        COMMENT
and the USGS Hawaii Volcano Observatory.                    COMMENT
                                                            COMMENT
End of DB comments                                          COMMENT
 SNR is mapped to RINEX snr flag value [0-9]                COMMENT
  L1 & L2: min(max(int(snr_dBHz/6), 0), 9)                  COMMENT
  2012    10    28     0     0    0.0000000     GPS         TIME OF FIRST OBS
                                                            END OF HEADER
 12 10 28  0  0  0.0000000  0 11G29G06G22G21G18G31G03G30G16G14G19
 127167538.998 6  99091592.39143  24199178.004    24199178.9784
        38.100          22.9004
 114169773.193 7  88963447.19445  21725785.423    21725782.4704
        47.500          33.8004
 106523494.520 8  83005289.99847  20270746.988    20270739.6404
        50.500          42.9004
 122784245.280 7  95676014.65344  23365064.964    23365060.0194
        44.000          25.6004
 113815877.949 8  88687670.81446  21658441.420    21658435.0104
        48.800          36.4004
 131269635.777 6 102288048.65842  24979781.078    24979786.2144
        36.900          17.4004
 118034606.815 7  91975015.64944  22461238.832    22461238.2824
        43.700          29.0004
 111064463.632 8  86543734.40046  21134864.662    21134863.8794
        50.500          38.6004
 112482993.728 8  87649075.83146  21404802.079    21404799.4784
        49.500          36.8004
 123456354.788 6  96199781.82243  23492963.150    23492969.2244
        38.700          21.1004
 131068207.356 6 102131074.43743  24941450.529    24941451.5624
        38.700          18.3004
 12 10 28  0  0 30.0000000  0 11G29G06G22G21G18G31G03G30G16G14G19
 127231386.151 6  99141343.26643  24211328.125    24211329.5104
        38.000          23.2004
 114105899.492 7  88913675.64745  21713630.459    21713627.1564
        47.000          34.0004
 106517311.863 8  83000472.43147  20269570.592    20269563.0684
        50.800          43.7004
 122825481.046 7  95708146.38844  23372912.453    23372906.9804
        43.700          25.5004
 113878693.737 7  88736618.16646  21670395.049    21670388.5804
        47.800          36.2004
 131310537.792 6 102319920.30842  24987563.366    24987568.9124
        37.100          16.9004
 117949712.128 7  91908864.20145  22445083.589    22445083.4504
        43.700          30.0004
 111115681.113 8  86583644.03946  21144611.174    21144610.3904
        50.000          38.9004
 112460506.971 8  87631553.74646  21400523.092    21400520.3164
        49.500          37.0004
 123387416.219 6  96146063.93543  23479844.488    23479850.0934
        40.300          19.9004
 130989905.622 6 102070060.15543  24926549.134    24926550.6364
        38.600          18.6004
 12 10 28  0  1  0.0000000  0 11G29G06G22G21G18G31G03G30G16G14G19
 127295476.546 6  99191283.69144  24223524.877    24223525.1484
        38.700          24.7004
 114042139.920 7  88863993.01945  21701497.889    21701494.4094
        46.200          34.3004
 106511640.505 8  82996053.27047  20268491.327    20268483.9794
        51.400          43.7004
 122866649.801 7  95740225.92944  23380745.627    23380740.6244
        43.600          24.9004
 113941827.390 7  88785813.19446  21682408.695    21682402.8124
        47.000          36.0004
 131351168.803 5 102351580.73442  24995295.583    24995301.7164
        35.600          16.9004
 117864919.585 7  91842792.32744  22428947.675    22428948.4164
        43.400          29.2004
 111167372.854 8  86623923.22446  21154447.604    21154447.2314
        50.000          39.1004
 112438568.602 8  87614458.96546  21396348.510    21396345.5584
        50.100          37.7004
 123318468.864 6  96092339.18343  23466723.929    23466728.0694
        39.100          19.3004
 130911491.701 6 102008958.48442  24911627.747    24911630.2464
        38.800          17.4004
 12 10 28  0  1 30.0000000  0 11G29G06G22G21G18G31G03G30G16G14G19
 127359810.459 6  99241413.83543  24235766.269    24235767.7124
        36.600          22.5004
 113978496.632 7  88814401.01545  21689386.108    21689383.0974
        46.300          34.7004
 106506480.564 8  82992032.60847  20267509.627    20267502.2204
        51.600          43.8004
 122907751.630 7  95772253.31744  23388566.890    23388562.1794
        43.100          25.9004
 114005276.731 7  88835254.21745  21694482.678    21694476.5614
        47.300          35.7004
 131391527.746 5 102383029.18443  25002975.231    25002981.4224
        34.200          19.0004
 117780231.933 7  91776802.21945  22412831.696    22412832.6124
        43.500          30.0004
 111219536.914 8  86664570.44646  21164374.513    21164373.9634
        50.800          39.0004
 112417179.879 8  87597792.48746  21392278.498    21392275.3114
        50.300          37.0004
 123249515.702 6  96038609.94243  23453602.375    23453606.1054
        39.600          20.1004
 130832966.351 6 101947769.86043  24896684.353    24896687.4384
        37.000          18.6004
 12 10 28  0  2  0.0000000  0 11G29G06G22G21G18G31G03G30G16G14G19
 127424388.168 6  99291733.96743  24248055.229    24248056.0284
        37.200          22.3004
 113914972.215 7  88764901.62245  21677298.137    21677294.5404
        46.700          34.3004
 106501832.421 8  82988410.76147  20266624.867    20266617.2254
        51.500          43.6004
 122948787.397 6  95804229.21944  23396375.995    23396371.5774
        41.100          26.3004
 114069040.061 7  88884939.92445  21706616.376    21706610.3184
        47.500          35.6004
 131431613.091 5 102414264.39443  25010605.149    25010609.8754
        35.900          19.0004
 117695651.529 7  91710895.65544  22396736.490    22396736.7034
        43.100          29.7004
 111272171.085 8  86705583.97846  21174390.318    21174389.6524
        50.700          38.6004
 112396341.669 8  87581554.97746  21388312.946    21388310.0524
        49.800          37.1004
 123180559.909 6  95984878.65243  23440479.724    23440484.3914
        39.200          19.9004
 130754331.150 6 101886495.73043  24881723.061    24881723.0984
        40.400          19.0004
 12 10 28  0  2 30.0000000  0 11G29G06G22G21G18G31G03G30G16G14G19
 127489208.479 6  99342243.11943  24260390.039    24260391.6004
        37.600          21.8004
 113851567.697 7  88715495.65145  21665232.536    21665228.9984
        46.300          34.5004
 106497694.613 8  82985186.57847  20265837.280    20265830.1074
        50.200          43.5004
 122989756.345 7  95836153.05244  23404171.686    23404167.7964
        42.600          25.1004
 114133114.193 8  88934867.80446  21718809.614    21718803.2634
        48.400          36.0004
 131471423.114 5 102445285.19242  25018178.785    25018185.7974
        34.600          16.9004
 117611179.513 7  91645073.55245  22380662.925    22380661.9074
        43.900          30.0004
 111325271.951 8  86746961.17346  21184495.572    21184494.3784
        51.100          38.2004
 112376053.393 8  87565745.97146  21384451.899    21384448.7714
        49.400          37.1004
 123111603.412 6  95931146.82043  23427356.561    23427362.2834
        39.900          20.4004
 130675585.825 6 101825135.73043  24866737.105    24866737.9624
        38.700          19.3004
 12 10 28  0  3  0.0000000  0 11G29G06G22G21G18G31G03G30G16G14G19
 127554272.250 6  99392941.99743  24272772.141    24272772.9404
        37.200          21.1004
 113788286.062 7  88666185.45345  21653190.336    21653186.7394
        47.400          35.1004
 106494067.288 8  82982360.17147  20265146.933    20265139.7024
        50.500          43.7004
 123030659.448 7  95868025.56244  23411955.280    23411951.1554
        42.400          26.0004
 114197498.432 8  88985037.33745  21731061.456    21731055.4564
        48.200          35.7004
 131510957.530 5 102476091.12143  25025702.990    25025709.0054
        35.400          18.3004
 117526819.288 7  91579338.56244  22364609.013    22364608.6984
        44.100          29.5004
 111378838.104 8  86788700.93446  21194688.443    21194688.0114
        50.500          38.8004
 112356316.711 8  87550366.77946  21380696.339    21380693.6214
        49.600          38.2004
 123042649.545 6  95877417.02243  23414235.130    23414240.7354
        40.400          20.6004
 130596732.358 6 101763691.53943  24851732.825    24851732.2764
        39.500          18.6004
 12 10 28  0  3 30.0000000  0 11G29G06G22G21G18G31G03G30G16G14G19
 127619579.061 6  99443830.26143  24285198.964    24285200.4674
        36.800          22.0004
 113725128.939 7  88616972.26845  21641171.501    21641168.0224
        46.700          35.5004
 106490949.721 8  82979930.98047  20264553.469    20264546.6494
        51.500          43.6004
 123071496.278 7  95899846.43844  23419727.255    23419721.8414
        42.800          26.4004
 114262190.088 8  89035446.38845  21743372.099    21743365.9824
        48.300          35.8004
 131550213.918 5 102506680.45043  25033173.890    25033179.6714
        34.800          19.0004
 117442572.420 7  91513691.92844  22348577.953    22348576.8764
        44.700          29.5004
 111432866.463 8  86830800.84246  21204970.010    21204969.1094
        50.500          38.6004
 112337132.007 8  87535417.70346  21377045.110    21377042.9204
        49.300          37.4004
 122973701.462 6  95823691.76243  23401114.467    23401119.7784
        39.600          20.4004
 130517770.790 6 101702163.03543  24836705.806    24836706.6044
        39.300          18.3004
 12 10 28  0  4  0.0000000  0 11G29G06G22G21G18G31G03G30G16G14G19
 127685128.746 6  99494907.79643  24297673.378    24297675.1154
        37.800          22.2004
 113662098.202 7  88567857.55245  21629177.235    21629173.5214
        46.100          35.1004
 106488341.293 8  82977898.52447  20264057.192    20264049.6684
        50.400          44.0004
 123112267.062 7  95931615.83944  23427485.305    23427480.3014
        42.200          26.5004
 114327186.595 8  89086093.00245  21755739.776    21755734.4794
        48.800          35.5004
 131589191.063 5 102537052.10342  25040590.076    25040597.2634
        34.400          16.3004
 117358441.151 7  91448135.35045  22332566.954    22332566.5804
        43.800          30.7004
 111487354.540 8  86873258.96346  21215338.926    21215338.4944
        51.100          38.9004
 112318499.143 8  87520898.62846  21373499.826    21373496.4634
        50.100          37.7004
 122904761.369 6  95769972.75843  23387996.334    23388000.4154
        40.200          19.3004
 130438702.113 6 101640551.16242  24821657.612    24821659.3484
        36.900          16.9004
 12 10 28  0  4 30.0000000  0 11G29G06G22G21G18G31G03G30G16G14G19
 127750921.271 6  99546174.55843  24310193.830    24310195.2744
        37.200          20.1004
 113599196.322 7  88518843.24445  21617206.953    21617203.9424
        45.900          34.9004
 106486242.325 8  82976263.04847  20263657.926    20263650.4024
        51.400          43.7004
 123152972.395 7  95963334.27744  23435231.325    23435226.4974
        42.300          26.5004
 114392486.419 7  89136975.96945  21768166.212    21768160.3294
        46.900          35.9004
 131627887.885 5 102567205.41342  25047954.449    25047960.6994
        33.700          16.9004
 117274428.472 7  91382671.19144  22316580.437    22316578.8924
        44.600          29.4004
 111542300.084 8  86916073.55646  21225794.915    21225794.0144
        50.500          38.9004
 112300419.168 8  87506810.36846  21370059.533    21370056.5224
        50.000          38.3004
 122835832.808 6  95716262.74343  23374878.451    23374883.0014
        39.200          20.1004
 130359527.684 6 101578856.86143  24806592.781    24806593.0524
        39.700          19.0004
 12 10 28  0  5  0.0000000  0 11G29G06G22G21G18G31G03G30G16G14G19
 127816956.443 6  99597630.39343  24322759.729    24322760.8804
        37.700          22.2004
 113536425.031 7  88469930.69745  21605262.459    21605258.8624
        46.300          35.3004
 106484651.538 8  82975023.54347  20263355.254    20263347.7304
        49.600          43.5004
 123193612.169 7  95995001.62644  23442964.456    23442960.3904
        42.800          26.5004
 114458087.077 7  89188093.34045  21780649.592    21780643.9434
        46.900          35.3004
 131666302.720 5 102597139.00142  25055264.752    25055270.1234
        34.600          16.9004
 117190536.207 7  91317300.83244  22300614.997    22300614.5654
        43.400          29.1004
 111597700.373 8  86959242.49846  21236337.384    21236336.8344
        50.200          39.0004
 112282892.120 8  87493152.95446  21366723.360    21366720.8774
        50.000          37.2004
 122766918.125 6  95662563.45843  23361764.164    23361768.5974
        40.800          20.4004
 130280248.208 6 101517080.72843  24791506.026    24791507.1184
        40.100          19.3004
 12 10 28  0  5 30.0000000  0 11G29G06G22G21G18G31G03G30G16G14G19
 127883233.241 6  99649274.50743  24335372.018    24335372.1724
        37.600          20.6004
 113473785.636 7  88421120.92145  21593341.965    21593338.4274
        46.200          35.4004
 106483567.607 8  82974179.00047  20263148.527    20263140.9444
        51.000          43.7004
 123234185.472 7  96026617.16444  23450685.113    23450681.2234
        42.600          25.4004
 114523985.759 8  89239442.94745  21793189.943    21793183.8854
        48.600          35.2004
 131704433.566 5 102626851.28842  25062520.640    25062525.9524
        32.800          15.6004
 117106765.333 7  91252025.07745  22284674.549    22284673.7074
        44.000          30.0004
 111653551.728 8  87002762.92246  21246965.396    21246965.0234
        49.500          38.2004
 112265917.868 8  87479926.28646  21363494.187    21363491.2354
        50.500          38.4004
 122698019.667 6  95608876.94143  23348652.585    23348656.7844
        39.900          20.4004
 130200863.645 6 101455222.68343  24776399.505    24776401.1244
        40.500          19.9004
 12 10 28  0  6  0.0000000  0 11G29G06G22G21G18G31G03G30G16G14G19
 127949752.285 6  99701107.38943  24348029.645    24348031.5584
        37.500          21.8004
 113411281.079 7  88372416.21845  21581448.158    21581443.9164
        46.600          35.5004
 106482990.963 8  82973729.73547  20263038.992    20263031.5864
        51.900          43.7004
 123274693.647 7  96058181.95944  23458394.790    23458389.7864
        42.300          25.2004
 114590180.783 8  89291023.47845  21805786.514    21805780.5734
        48.600          35.5004
 131742280.213 5 102656342.09042  25069723.358    25069728.6704
        34.200          16.9004
 117023119.697 7  91186846.91044  22268756.742    22268756.3684
        45.100          29.0004
 111709852.894 8  87046633.84046  21257679.240    21257678.8084
        48.700          38.1004
 112249497.611 8  87467131.31546  21360368.526    21360366.3944
        50.000          37.8004
 122629140.779 6  95555205.63043  23335544.434    23335549.3354
        41.000          21.5004
 130121375.906 6 101393284.21643  24761274.047    24761274.9634
        41.500          20.1004
 12 10 28  0  6 30.0000000  0 11G29G06G22G21G18G31G03G30G16G14G19
 128016513.060 6  99753128.58043  24360734.773    24360735.9244
        38.600          22.2004
 113348913.248 7  88323818.06745  21569579.483    21569575.9444
        46.200          34.9004
 106482920.811 8  82973675.13847  20263025.519    20263017.9364
        52.600          43.0004
 123315136.723 6  96089696.02944  23466090.034    23466085.3824
        41.300          25.4004
 114656669.911 7  89342833.17745  21818438.756    21818432.9914
        47.800          35.5004
 131779840.556 5 102685609.81742  25076870.428    25076876.2674
        34.600          17.4004
 116939601.016 7  91121767.66244  22252863.025    22252862.7694
        44.300          29.3004
 111766600.795 8  87090852.85546  21268478.373    21268477.7654
        48.300          38.3004
 112233631.740 8  87454768.33346  21357349.450    21357347.0254
        50.500          37.8004
 122560284.124 6  95501551.61443  23322441.609    23322445.1624
        40.900          21.5004
 130041785.314 6 101331265.70443  24746127.504    24746129.4164
        40.100          19.9004
 12 10 28  0  7  0.0000000  0 11G29G06G22G21G18G31G03G30G16G14G19
 128083514.742 6  99805337.52543  24373485.370    24373486.1694
        39.400          22.6004
 113286683.370 7  88275327.38145  21557737.619    21557733.6124
        47.800          34.9004
 106483355.593 8  82974014.00147  20263108.310    20263100.5514
        51.900          43.3004
 123355514.073 6  96121158.89044  23473773.418    23473769.4114
        41.300          25.1004
 114723450.035 7  89394869.62645  21831146.245    21831140.4214
        46.800          34.5004
 131817112.709 6 102714652.95943  25083962.942    25083968.7234
        36.300          19.9004
 116856210.739 7  91056788.47845  22236994.861    22236993.6674
        44.700          30.2004
 111823791.911 8  87135417.23746  21279361.586    21279360.6854
        50.000          38.0004
 112218319.568 8  87442836.79146  21354436.120    21354433.1684
        50.400          38.1004
 122491451.661 7  95447916.47743  23309343.289    23309346.5504
        42.700          21.5004
 129962092.205 6 101269167.24043  24730961.147    24730965.3454
        38.300          20.6004
 12 10 28  0  7 30.0000000  0 11G29G06G22G21G18G31G03G30G16G14G19
 128150757.876 6  99857734.64743  24386281.006    24386281.8644
        39.400          22.5004
 113224594.329 7  88226946.43945  21545921.765    21545917.9924
        46.900          35.1004
 106484295.642 8  82974746.56947  20263286.980    20263279.6324
        49.800          43.5004
 123395826.855 6  96152571.44444  23481444.019    23481439.6014
        41.400          24.0004
 114790520.217 8  89447132.09345  21843909.610    21843903.7274
        48.200          35.0004
 131854095.970 5 102743470.95242  25091001.105    25091006.8274
        35.400          17.8004
 116772951.954 7  90991911.74444  22221150.952    22221149.9934
        45.500          29.5004
 111881424.463 8  87180325.59346  21290328.370    21290328.1734
        49.400          37.6004
 112203562.426 8  87431337.74946  21351627.779    21351625.0614
        50.500          38.0004
 122422647.243 6  95394303.17143  23296249.227    23296253.0154
        41.400          22.3004
 129882298.503 6 101206990.48243  24715778.733    24715780.2364
        39.500          22.6004
 12 10 28  0  8  0.0000000  0 11G29G06G22G21G18G31G03G30G16G14G19
 128218241.980 6  99910319.52043  24399122.641    24399123.4994
        38.300          22.0004
 113162647.940 8  88178676.66245  21534134.142    21534130.4284
        48.000          35.3004
 106485740.128 8  82975872.21347  20263562.306    20263554.7824
        49.900          43.3004
 123436074.786 6  96183933.43744  23489103.703    23489098.3484
        41.600          24.7004
 114857877.867 8  89499618.56345  21856727.702    21856721.1754
        48.000          34.9004
 131890789.139 5 102772062.99442  25097983.650    25097989.4314
        33.900          16.9004
 116689826.747 7  90927139.08944  22205332.910    22205330.8954
        45.200          29.3004
 111939495.834 8  87225575.89046  21301379.126    21301378.9294
        48.900          37.9004
 112189359.770 8  87420270.77746  21348925.422    21348922.5284
        50.300          38.1004
 122353873.641 6  95340713.90443  23283161.955    23283165.2744
        41.800          21.1004
 129802404.990 6 101144735.92043  24700573.806    24700576.8914
        37.100          21.3004
 12 10 28  0  8 30.0000000  0 11G29G06G22G21G18G31G03G30G16G14G19
 128285966.542 6  99963091.76743  24412011.099    24412012.0154
        39.100          22.3004
 113100846.245 7  88130519.63445  21522373.339    21522369.5664
        47.000          34.7004
 106487688.190 8  82977390.24747  20263932.235    20263924.7114
        51.300          43.9004
 123476258.162 6  96215245.15744  23496750.338    23496744.8074
        41.400          25.3004
 114925520.519 7  89552327.11945  21869599.461    21869593.6954
        47.600          35.7004
 131927190.551 5 102800427.63142  25104909.882    25104916.3664
        32.000          15.6004
 116606837.191 7  90862472.14444  22189539.655    22189538.5784
        45.100          29.3004
 111998002.996 8  87271165.76446  21312513.250    21312512.6424
        48.800          38.5004
 112175712.015 8  87409636.19046  21346328.184    21346325.3494
        50.200          38.5004
 122285133.472 7  95287150.65343  23270081.102    23270084.4214
        42.500          22.0004
 129722412.476 6 101082404.14043  24685352.410    24685354.0884
        39.000          22.6004
 12 10 28  0  9  0.0000000  0 11G29G06G22G21G18G31G03G30G16G14G19
 128353931.417 6 100016051.24943  24424944.113    24424945.4984
        38.700          23.3004
 113039191.132 7  88082476.82345  21510640.894    21510636.8864
        46.200          35.9004
 106490139.019 8  82979300.05147  20264399.299    20264391.3064
        52.000          43.5004
 123516376.819 6  96246506.42544  23504384.369    23504379.0724
        40.300          24.5004
 114993445.952 7  89605256.01945  21882525.348    21882519.1724
        46.900          35.1004
 131963298.929 5 102828563.93442  25111781.508    25111786.6444
        32.600          15.6004
 116523985.499 7  90797912.61245  22173773.696    22173771.7404
        45.300          30.2004
 112056943.129 8  87317093.00946  21323729.085    21323728.8284
        48.300          38.5004
 112162619.511 8  87399434.26046  21343836.778    21343833.7674
        50.300          38.6004
 122216429.385 6  95233615.57643  23257005.384    23257010.3444
        41.400          22.9004
 129642321.436 6 101019995.65543  24670111.474    24670112.4494
        37.900          20.4004
 12 10 28  0  9 30.0000000  0 11G29G06G22G21G18G31G03G30G16G14G19
 128422127.314 6 100069190.79143  24437919.746    24437922.7134
        36.000          22.0004
 112977675.870 7  88034542.98145  21498934.892    21498930.4744
        46.600          35.2004
 106493083.053 8  82981594.16347  20264958.958    20264951.3764
        50.500          43.5004
 123556422.965 6  96277711.21544  23512005.760    23512000.0534
        41.200          24.7004
 115061642.876 7  89658396.47045  21895502.795    21895496.7364
        47.300          34.8004
                 102856710.79042  25118593.858
        29.600          15.6004
 116441265.438 7  90733455.66545  22158032.397    22158030.9104
        44.900          30.7004
 112116304.775 8  87363348.70746  21335025.495    21335024.7694
        48.900          38.5004
 112150073.454 8  87389658.13746  21341449.342    21341446.6834
        50.500          38.2004
 122147755.536 7  95180104.01543  23243937.818    23243941.3134
        42.600          22.9004
 129562124.431 6 100957504.55743  24654851.050    24654850.3844
        39.400          19.9004
 12 10 28  0 10  0.0000000  0 11G29G06G22G21G18G31G03G30G16G14G19
 128490580.322 6 100122530.63043  24450946.909    24450948.6454
        36.200          20.9004
 112916328.821 7  87986740.22245  21487260.387    21487256.5564
        46.300          35.2004
 106496545.779 8  82984292.45847  20265617.756    20265610.2324
        50.900          43.3004
 123596422.185 6  96308879.42843  23519616.348    23519611.5794
        39.800          23.8004
 115130135.274 7  89711767.18045  21908536.429    21908530.4874
        47.500          34.7004
 132034831.101 5 102884419.28542  25125357.264    25125360.4664
        34.200          16.3004
 116358705.544 7  90669123.52845  22142321.878    22142320.6254
        44.200          31.5004
 112176111.416 8  87409951.16746  21346406.052    21346406.0894
        48.400          38.2004
 112138100.124 8  87380328.29946  21339170.997    21339167.7524
        50.400          38.2004
 122079140.697 7  95126638.44443  23230880.615    23230883.0554
        43.000          23.0004
 129481848.488 6 100894951.96243  24639574.707    24639575.1554
        38.900          20.4004
 12 10 28  0 10 30.0000000  0 11G29G06G22G21G18G31G03G30G16G14G19
 128559263.675 6 100176050.01343  24464017.174    24464017.9144
        36.800          18.6004
 112855125.968 7  87939049.82745  21475613.714    21475609.5314
        47.200          35.6004
 106500500.256 8  82987373.94247  20266370.367    20266362.6094
        50.600          43.4004
 123636348.937 6  96339991.17443  23527214.664    23527209.6614
        40.100          22.9004
 115198895.482 7  89765346.55845  21921621.445    21921614.7424
        47.100          35.1004
 132070052.717 5 102911864.49842  25132057.945    25132064.1364
        33.600          16.9004
 116276281.811 7  90604897.48745  22126636.314    22126635.1204
        44.300          31.2004
 112236334.369 8  87456878.01846  21357866.224    21357866.0854
        49.100          38.2004
 112126673.880 8  87371424.75446  21336996.438    21336993.6034
        50.800          38.3004
 122010561.974 7  95073201.03043  23217829.511    23217832.7714
        42.500          22.8004
 129401468.297 6 100832318.16643  24624279.602    24624279.5804
        39.700          21.7004
 12 10 28  0 11  0.0000000  0 11G29G06G22G21G18G31G03G30G16G14G19
 128628178.110 5 100229749.39943  24477129.577    24477132.6034
        35.400          18.6004
 112794070.097 7  87891473.95645  21463995.284    21463990.9844
        47.500          35.2004
 106504946.337 8  82990838.49047  20267216.600    20267208.5484
        51.200          44.0004
 123676204.246 6  96371047.23343  23534799.002    23534793.8234
        40.400          22.9004
 115267921.850 7  89819133.34245  21934756.300    21934749.8314
        47.000          34.5004
                 102939057.44942  25138704.078
        33.900          14.8004
 116193997.048 7  90540779.72645  22110978.847    22110976.7154
        44.800          30.7004
 112296971.369 8  87504127.48946  21369405.274    21369405.6634
        48.200          37.6004
 112115795.467 8  87362948.09546  21334926.200    21334923.2484
        49.900          38.0004
 121942023.111 7  95019794.64444  23204786.583    23204789.7854
        42.000          25.5004
 129320985.843 6 100769604.62843  24608962.844    24608965.8114
        37.900          22.2004
 12 10 28  0 11 30.0000000  0 11G29G06G22G21G18G31G03G30G16G14G19
 128697347.323 5 100283647.35243  24490292.890    24490296.1504
        35.300          19.6004
 112733187.449 7  87844033.05045  21452410.074    21452405.4804
        46.800          35.4004
 106509907.845 8  82994704.67047  20268160.363    20268152.6634
        51.200          43.7004
 123716013.207 6  96402067.17943  23542374.948    23542369.5344
        41.100          22.9004
 115337235.517 7  89873143.99045  21947946.186    21947939.7174
        47.600          34.7004
 132139613.751 5 102966062.64842  25145294.792    25145299.1664
        33.400          14.8004
 116111878.160 7  90476791.22645  22095351.655    22095349.8754
        45.500          30.8004
 112358043.980 8  87551716.41646  21381026.593    21381027.1574
        48.400          38.6004
 112105489.117 8  87354917.19546  21332964.944    21332961.7584
        49.900          37.8004
 121873550.869 6  94966440.20444  23191756.162    23191760.2434
        40.800          24.9004
 129240426.468 6 100706831.18543  24593633.216    24593635.0124
        39.900          22.0004
 12 10 28  0 12  0.0000000  0 11G29G06G22G21G18G31G03G30G16G14G19
 128766738.609 6 100337718.35243  24503498.689    24503501.3644
        36.900          20.6004
 112672447.515 8  87796703.34946  21440851.112    21440846.9294
        48.400          36.0004
 106515351.224 8  82998946.34547  20269196.357    20269188.5404
        51.300          43.5004
 123755742.616 6  96433025.14743  23549935.087    23549929.6154
        41.100          23.4004
 115406802.436 7  89927351.98745  21961184.050    21961177.9914
        46.900          34.4004
                 102992772.32542  25151821.515
        28.000          14.8004
 116029895.209 7  90412908.64045  22079750.586    22079748.6884
        45.400          31.3004
 112419517.096 8  87599617.41446  21392724.925    21392725.0204
        48.600          37.7004
 112095722.527 8  87347306.88646  21331106.425    21331102.9464
        49.600          38.0004
 121805115.848 6  94913114.74543  23178732.594    23178736.2064
        41.500          22.8004
 129159758.425 6 100643973.07543  24578283.431    24578284.4644
        40.400          22.0004
 12 10 28  0 12 30.0000000  0 11G29G06G22G21G18G31G03G30G16G14G19
 128836383.004 6 100391986.54143  24516751.839    24516754.5724
        36.400          21.1004
 112611884.535 7  87749511.54945  21429325.999    21429322.1094
        47.400          34.9004
 106521307.087 8  83003587.35647  20270329.789    20270322.0314
        50.800          43.8004
 123795424.640 6  96463946.18344  23557485.709    23557480.4714
        40.700          24.7004
 115476651.995 7  89981780.22345  21974476.432    21974469.9634
        47.500          33.9004
 132207951.894 5 103019318.26542  25158299.057    25158304.9554
        30.500          13.9004
 115948081.689 7  90349158.09145  22064181.248    22064180.4064
        45.200          31.7004
 112481419.146 8  87647852.63746  21404504.750    21404505.0224
        48.000          37.6004
 112086527.104 8  87340141.64846  21329356.164    21329353.7394
        49.400          38.0004
 121736752.417 6  94859845.04143  23165723.979    23165726.4784
        41.100          22.6004
 129079014.599 6 100581055.91243  24562918.692    24562918.8464
        40.800          20.9004
 12 10 28  0 13  0.0000000  0 11G29G06G22G21G18G31G03G30G16G14G19
 128906256.836 6 100446433.55143  24530048.571    24530050.5424
        37.200          21.5004
 112551476.560 8  87702440.51545  21417830.691    21417826.6844
        48.000          35.6004
 106527751.047 8  83008608.70047  20271555.931    20271548.0564
        49.700          43.3004
 123835036.314 6  96494812.38943  23565023.933    23565019.1054
        40.500          23.8004
 115546758.393 7  90036408.57345  21987817.418    21987811.1254
        46.800          33.7004
 132241673.221 5                  25164717.332
        31.300
 115866416.395 7  90285523.04345  22048641.489    22048639.2404
        44.600          30.8004
 112543724.128 8  87696401.82846  21416361.145    21416361.4164
        49.200          37.5004
 112077879.527 8  87333403.29646  21327711.222    21327708.3874
        49.700          37.8004
 121668440.053 7  94806615.14843  23152723.990    23152725.7854
        42.400          22.6004
 128998172.320 6 100518062.00943  24547534.939    24547534.8004
        40.500          20.9004
 12 10 28  0 13 30.0000000  0 11G29G06G22G21G18G31G03G30G16G14G19
 128976360.088 6 100501059.30243  24543388.173    24543390.7894
        36.900          20.6004
 112491226.410 8  87655492.46145  21406365.996    21406361.4024
        49.300          35.7004
 106534682.565 8  83014009.97947  20272874.499    20272866.9754
        50.900          43.2004
 123874578.247 6  96525624.27843  23572548.693    23572543.5724
        40.300          22.9004
 115617119.738 8  90091235.60445  22001206.340    22001200.2814
        48.200          33.9004
                                  25171073.042
        30.800
 115784902.603 7  90222006.05245  22033129.073    22033127.5274
        45.200          31.4004
 112606429.493 8  87745263.01346  21428293.603    21428293.9914
        49.700          37.8004
 112069780.064 8  87327092.04846  21326169.679    21326166.6104
        49.900          37.6004
 121600181.981 7  94753427.53043  23139734.849    23139736.7034
        42.200          22.5004
 128917233.123 6 100454992.57843  24532130.888    24532132.3904
        38.100          21.3004
 12 10 28  0 14  0.0000000  0 11G29G06G22G21G18G31G03G30G16G14G19
 129046708.077 6 100555875.78043  24556776.582    24556776.8534
        38.000          20.9004
 112431152.334 8  87608681.61446  21394933.817    21394929.9274
        48.800          36.7004
 106542117.168 8  83019803.26947  20274289.429    20274281.3784
        50.500          43.5004
 123914066.994 6  96556394.68944  23580063.702    23580057.7604
        40.500          24.8004
 115687749.547 8  90146271.82145  22014646.787    22014640.5524
        48.000          34.2004
                                  25177372.375
        29.600
 115703558.397 7  90158621.18345  22017649.321    22017648.0684
        44.400          31.2004
 112669548.447 8  87794446.48446  21440304.979    21440304.7234
        50.200          37.7004
 112062244.692 8  87321220.35046  21324735.749    21324732.4454
        50.400          37.7004
 121531997.123 6  94700296.96143  23126758.511    23126760.5414
        41.300          21.8004
 128836214.132 6 100391861.05143  24516713.850    24516714.2974
        39.600          20.9004
 12 10 28  0 14 30.0000000  0 10G29G06G22G21G18G03G30G16G14G19
 129117291.123 6 100610875.37143  24570207.270    24570209.3584
        37.700          21.3004
 112371246.318 8  87562001.72046  21383534.147    21383530.2574
        48.900          36.2004
 106550043.287 8  83025979.55147  20275797.320    20275789.5624
        50.100          43.1004
 123953492.858 6  96587116.08844  23587566.089    23587560.7334
        39.700          24.4004
 115758636.347 8  90201508.28645  22028136.015    22028129.5474
        48.000          33.6004
 115622376.146 7  90095362.53345  22002201.423    22002199.9364
        44.900          31.9004
 112733068.460 8  87843942.46546  21452392.564    21452392.1324
        49.800          37.4004
 112055264.083 8  87315780.92746  21323407.312    21323404.3604
        49.700          37.5004
 121463878.690 7  94647218.15843  23113795.964    23113798.3454
        42.800          22.6004
 128755106.724 6 100328660.57543  24501278.979    24501281.1844
        39.200          22.3004
 12 10 28  0 15  0.0000000  0 10G29G06G22G21G18G03G30G16G14G19
 129188110.381 6 100666059.07843  24583683.877    24583686.1414
        37.300          21.3004
 112311512.726 8  87515456.17046  21372166.667    21372162.9534
        48.300          36.0004
 106558462.722 8  83032540.23747  20277399.538    20277391.8384
        50.300          42.8004
 123992858.101 6  96617790.30744  23595056.428    23595051.3074
        39.600          24.0004
 115829779.545 8  90256944.53645  22041674.562    22041668.3864
        49.100          34.4004
 115541360.127 7  90032233.41345  21986784.305    21986782.9354
        45.200          31.9004
 112796988.420 8  87893750.08646  21464556.130    21464556.6364
        49.600          37.7004
 112048839.271 8  87310774.59346  21322184.749    21322182.0314
        49.900          38.3004
 121395831.348 6  94594194.71043  23100846.742    23100848.2454
        41.400          21.8004
 128673913.740 7 100265393.48343  24485830.067    24485830.1624
        42.000          22.3004
 12 10 28  0 15 30.0000000  0 10G29G06G22G21G18G03G30G16G14G19
 129259164.490 6 100721425.73643  24597205.461    24597206.7874
        38.700          22.2004
 112251952.455 7  87469045.69146  21360832.797    21360828.9654
        47.900          36.6004
 106567373.262 8  83039483.59947  20279095.275    20279087.5764
        50.700          42.9004
 124032162.054 6  96648416.75144  23602536.275    23602530.9794
        40.200          25.7004
 115901175.373 8  90312577.63145  22055260.951    22055254.4244
        48.900          34.3004
 115460511.784 7  89969234.94345  21971399.152    21971397.3714
        45.600          31.9004
 112861304.671 8  87943866.50846  21476795.154    21476795.6014
        49.200          37.6004
 112042969.250 8  87306200.56846  21321067.841    21321064.8304
        49.300          37.7004
 121327856.886 6  94541228.08343  23087911.343    23087913.0804
        41.200          22.8004
 128592635.281 6 100202059.72043  24470362.819    24470362.7394
        41.200          21.7004
 12 10 28  0 16  0.0000000  0 10G29G06G22G21G18G03G30G16G14G19
 129330453.863 6 100776975.78043  24610770.636    24610772.8424
        40.100          21.3004
 112192568.514 7  87422772.59846  21349532.753    21349529.0974
        47.500          36.9004
 106576774.573 8  83046809.38247  20280884.135    20280876.5534
        50.500          43.2004
 124071405.951 6  96678996.36443  23610003.344    23609998.8684
        39.400          23.5004
 115972823.124 8  90368407.03345  22068894.699    22068888.3474
        49.100          33.8004
 115379834.365 7  89906369.66545  21956046.403    21956044.3884
        45.900          31.7004
 112926015.030 8  87994290.01546  21489109.490    21489109.5864
        50.000          36.7004
 112037655.031 8  87302059.63146  21320056.733    21320053.1364
        50.400          38.6004
 121259959.301 7  94488321.33243  23074990.006    23074992.3294
        42.400          22.9004
 128511273.159 6 100138660.85343  24454879.294    24454879.4484
        38.700          21.7004
 12 10 28  0 16 30.0000000  0 10G29G06G22G21G18G03G30G16G14G19
 129401977.059 6 100832708.03043  24624382.178    24624383.2704
        39.800          20.6004
 112133362.228 7  87376637.94646  21338265.909    21338261.9024
        47.900          37.2004
 106586664.999 8  83054516.27647  20282766.343    20282758.2924
        49.900          43.4004
 124110589.395 6  96709528.89043  23617460.744    23617454.8614
        39.900          22.0004
 116044719.484 7  90424430.14645  22082576.059    22082570.0004
        47.200          34.2004
 115299329.488 7  89843638.82245  21940726.771    21940724.7564
        45.800          32.2004
 112991115.910 8  88045017.82946  21501497.699    21501497.9714
        50.300          37.1004
 112032895.583 8  87298350.98946  21319150.684    21319147.9084
        49.100          38.1004
 121192140.634 7  94435476.07243  23062085.220    23062086.3124
        42.300          22.5004
 128429828.226 6 100075197.41143  24439380.384    24439381.5354
        39.900          22.6004
 12 10 28  0 17  0.0000000  0 10G29G06G22G21G18G03G30G16G14G19
 129473734.218 6 100888622.60343  24638035.925    24638038.6584
        38.300          20.6004
 112074336.369 7  87330643.88446  21327033.766    21327029.7004
        47.000          36.5004
 106597044.015 8  83062603.91147  20284741.596    20284733.4274
        49.600          43.2004
 124149713.267 6  96740014.97144  23624905.751    23624900.5714
        40.400          24.7004
 116116862.832 7  90480645.72645  22096304.699    22096298.3474
        47.500          34.6004
 115219000.124 7  89781044.74945  21925440.260    21925437.9534
        45.700          32.1004
 113056604.889 8  88096048.05246  21513959.688    21513959.9014
        50.200          37.1004
 112028691.228 8  87295074.88046  21318350.509    21318347.2054
        49.900          37.9004
 121124404.660 7  94382695.30044  23049194.610    23049196.3474
        43.000          24.3004
 128348301.772 6 100011670.45843  24423866.288    24423867.2624
        40.500          22.6004
 12 10 28  0 17 30.0000000  0 10G29G06G22G21G18G03G30G16G14G19
 129545724.336 6 100944718.64143  24651736.026    24651738.2904
        40.600          21.5004
 112015492.280 8  87284791.47346  21315836.040    21315831.2124
        48.200          36.5004
 106607909.653 8  83071070.71747  20286808.825    20286800.7734
        49.500          43.8004
 124188777.045 6  96770454.24944  23632338.991    23632334.1054
        40.900          25.0004
 116189250.145 7  90537051.40545  22110080.062    22110073.3594
        47.200          34.5004
 115138847.682 7  89718588.52845  21910187.631    21910185.1484
        44.600          31.5004
 113122478.291 8  88147377.83346  21526495.357    21526495.9804
        50.700          37.2004
 112025040.719 8  87292230.34546  21317656.129    21317652.7664
        50.000          38.0004
 121056753.432 7  94329980.51844  23036319.773    23036322.0964
        42.500          24.2004
 128266694.206 6  99948080.36543  24408337.971    24408338.2434
        40.800          22.8004
 12 10 28  0 18  0.0000000  0 10G29G06G22G21G18G03G30G16G14G19
 129617947.307 6 101000996.15843  24665479.997    24665481.5584
        41.000          20.9004
 111956832.680 8  87239082.80446  21304673.522    21304668.6954
        49.000          36.7004
 106619261.609 8  83079916.46647  20288968.984    20288960.8154
        49.800          43.7004
 124227781.654 6  96800847.40843  23639761.274    23639756.3884
        40.600          22.3004
 116261879.674 8  90593645.81145  22123900.750    22123894.9264
        48.100          33.7004
 115058875.323 7  89656272.63745  21894969.453    21894966.6764
        45.000          31.7004
 113188733.879 8  88199005.41646  21539103.641    21539103.7364
        50.000          36.8004
 112021944.902 8  87289818.01346  21317067.075    21317064.1234
        50.700          38.2004
 120989189.870 7  94277334.05344  23023463.350    23023464.9704
        43.100          26.8004
 128185007.118 6  99884428.25243  24392792.187    24392793.4554
        39.800          22.2004
 12 10 28  0 18 30.0000000  0 10G29G06G22G21G18G03G30G16G14G19
 129690401.884 6 101057454.13843  24679267.416    24679269.5634
        41.800          21.1004
 111898358.991 8  87193519.00746  21293546.439    21293541.6704
        49.100          37.5004
 106631098.060 8  83089139.73547  20291221.209    20291213.2754
        50.100          43.3004
 124266726.941 6  96831194.35243  23647171.032    23647167.0834
        40.400          22.9004
 116334748.122 7  90650426.39245  22137767.234    22137760.5894
        46.900          33.9004
 114979084.883 7  89594098.49445  21879785.462    21879782.9784
        46.000          32.3004
 113255367.771 8  88250927.78346  21551783.336    21551783.7254
        49.900          36.4004
 112019402.541 8  87287836.96446  21316582.715    21316580.1734
        50.600          37.2004
 120921716.172 7  94224757.61144  23010623.063    23010624.7414
        43.200          26.4004
 128103241.083 6  99820714.63443  24377233.060    24377233.5084
        41.500          23.0004
 12 10 28  0 19  0.0000000  0 10G29G06G22G21G18G03G30G16G14G19
 129763088.785 7 101114093.18543  24693099.813    24693100.7884
        42.000          21.7004
 111840074.524 8  87148102.64546  21282455.445    21282449.9144
        48.900          37.6004
 106643418.803 8  83098740.36447  20293566.346    20293558.0024
        50.400          43.0004
 124305614.400 6  96861496.21144  23654572.314    23654567.7204
        40.600          24.8004
 116407854.690 8  90707392.50545  22151677.961    22151672.4304
        48.200          32.9004
 114899479.719 7  89532068.72345  21864637.088    21864634.0774
        46.300          32.3004
 113322378.345 8  88303143.66546  21564535.277    21564535.6074
        49.100          36.9004
 112017414.467 8  87286287.82646  21316205.011    21316201.8834
        51.200          38.5004
 120854337.142 7  94172254.92044  22997800.857    22997802.7704
        42.900          25.6004
 128021398.360 6  99756941.26743  24361658.343    24361658.7324
        40.200          22.8004
 12 10 28  0 19 30.0000000  0 10G29G06G22G21G18G03G30G16G14G19
 129836007.015 6 101170912.46343  24706974.733    24706976.7044
        40.600          22.2004
 111781980.628 8  87102834.79246  21271399.896    21271395.3614
        49.600          37.9004
 106656222.159 8  83108717.05947  20296002.207    20295993.9804
        49.700          43.0004
 124344444.025 6  96891753.04043  23661961.221    23661956.2174
        39.200          23.4004
 116481196.708 7  90764542.09545  22165635.079    22165628.8444
        46.300          32.7004
 114820061.826 7  89470184.87145  21849524.092    21849521.1394
        46.800          32.7004
 113389762.044 8  88355650.29446  21577357.821    21577359.0304
        49.000          37.0004
 112015979.377 8  87285169.58546  21315931.346    21315928.7454
        50.300          37.7004
 120787054.942 7  94119827.69944  22984997.380    22984998.7064
        44.300          26.8004
 127939479.488 6  99693108.59044  24346068.953    24346070.6904
        38.900          24.4004
 12 10 28  0 20  0.0000000  0 10G29G06G22G21G18G03G30G16G14G19
 129909154.898 6 101227910.71743  24720895.623    24720897.1844
        39.900          21.7004
 111724079.396 8  87057717.05746  21260381.767    21260377.1154
        50.000          37.2004
 106669506.582 8  83119068.61247  20298529.810    20298522.2274
        51.100          43.2004
 124383215.435 6  96921964.47443  23669339.091    23669333.9124
        40.700          22.5004
 116554771.351 7  90821872.95745  22179635.340    22179629.6924
        46.800          32.7004
 114740832.960 7  89408448.32645  21834446.586    21834444.8064
        47.400          33.1004
 113457515.481 8  88408445.01846  21590250.933    21590251.5564
        49.900          37.4004
 112015096.961 8  87284481.98246  21315763.778    21315760.8844
        50.500          37.6004
 120719871.910 7  94067477.73444  22972212.170    22972213.7314
        43.700          27.1004
 127857485.191 6  99629217.12643  24330467.061    24330466.3944
        39.600          22.8004
 12 10 28  0 20 30.0000000  0 10G29G06G22G21G18G03G30G16G14G19
 129982532.223 6 101285087.67343  24734857.559    24734861.9334
        38.000          20.9004
 111666372.340 8  87012750.63046  21249400.180    21249395.8214
        49.900          37.3004
 106683270.445 8  83129793.75147  20301149.413    20301141.1864
        51.600          42.7004
 124421928.776 6  96952130.67443  23676706.273    23676701.4464
        39.200          21.5004
 116628575.666 7  90879382.77545  22193679.907    22193674.4934
        47.600          32.1004
 114661795.005 8  89346860.53345  21819406.801    21819403.9074
        48.000          33.2004
 113525635.209 8  88461525.16346  21603214.278    21603214.9014
        50.000          37.1004
 112014766.349 8  87284224.37046  21315701.112    21315697.5744
        50.800          38.0004
 120652790.614 7  94015207.06644  22959447.131    22959447.2854
        43.400          25.5004
 127775416.621 6  99565267.80343  24314850.918    24314850.1344
        41.100          22.8004
 12 10 28  0 21  0.0000000  0 11G29G06G22G21G18G31G03G30G16G14G19
 130056142.916 6 101342446.50543  24748865.592    24748869.0294
        37.100          20.1004
 111608866.438 8  86967940.94446  21238456.615    21238452.5494
        49.200          38.1004
 106697517.765 8  83140895.60747  20303860.178    20303852.0684
        50.400          43.4004
 124460589.612 6  96982255.94843  23684062.704    23684057.5254
        38.900          20.9004
 116702612.535 7  90937073.81045  22207769.250    22207762.8984
        46.600          32.3004
 132739012.033 5                  25259355.257
        32.400
 114582955.535 7  89285427.40345  21804403.868    21804401.6194
        47.900          33.1004
 113594123.218 8  88514892.29446  21616247.000    21616247.6824
        50.000          36.6004
 112014991.960 8  87284400.16646  21315743.527    21315740.4584
        49.800          37.7004
 120585818.612 7  93963021.53044  22946702.316    22946702.7634
        44.200          24.8004
 127693279.553 6  99501265.10143  24299218.882    24299219.3294
        39.800          22.5004
 12 10 28  0 21 30.0000000  0 11G29G06G22G21G18G31G03G30G16G14G19
 130129978.248 6 101399980.39243  24762916.482    24762919.4494
        39.000          19.9004
 111551555.793 8  86923283.41446  21227551.095    21227546.8534
        48.000          37.8004
 106712238.654 8  83152366.48147  20306661.747    20306653.7544
        51.800          43.3004
 124499190.003 6  97012334.12443  23691408.011    23691402.9484
        40.600          21.8004
 116776871.448 7  90994937.88845  22221899.975    22221894.1504
        47.900          32.4004
 132767402.988 5                  25264757.538
        33.800
 114504308.412 8  89224144.14445  21789437.266    21789434.7824
        48.600          33.8004
 113662968.073 8  88568537.46746  21629348.011    21629348.9284
        49.300          37.3004
 112015765.103 8  87285002.62546  21315890.701    21315888.0424
        48.000          37.8004
 120518950.649 7  93910917.06544  22933976.861    22933978.4814
        42.700          25.4004
 127611067.031 6  99437203.60343  24283573.810    24283574.5504
        39.900          22.8004
 12 10 28  0 22  0.0000000  0 11G29G06G22G21G18G31G03G30G16G14G19
 130204042.916 6 101457692.97643  24777010.732    24777012.8204
        38.500          20.1004
 111494447.707 7  86878783.71746  21216683.484    21216679.3014
        47.400          38.2004
 106727437.647 8  83164209.89447  20309553.754    20309545.8794
        50.300          43.5004
 124537735.230 6  97042369.31543  23698743.315    23698738.3114
        39.400          20.6004
 116851355.252 7  91052977.19345  22236073.882    22236067.8824
        46.300          32.6004
 132795472.433 6 103477117.45043  25270099.393    25270104.2364
        37.000          19.0004
 114425861.622 7  89163016.99145  21774509.512    21774506.8534
        47.600          34.0004
 113732172.253 8  88622462.64446  21642516.899    21642518.0494
        49.600          36.3004
 112017090.358 8  87286035.29446  21316142.887    21316140.5804
        48.800          39.0004
 120452195.291 7  93858900.37044  22921273.774    22921274.5154
        43.900          26.4004
 127528785.620 6  99373088.41543  24267916.977    24267916.4284
        41.600          22.0004
 12 10 28  0 22 30.0000000  0 11G29G06G22G21G18G31G03G30G16G14G19
 130278334.702 6 101515582.61243  24791149.443    24791151.4144
        39.500          20.6004
 111437542.819 7  86834442.34746  21205855.022    21205850.6054
        47.400          37.5004
 106743111.322 8  83176423.20047  20312536.433    20312528.0304
        50.200          43.0004
 124576224.736 6  97072361.09843  23706067.310    23706062.5414
        37.600          21.1004
 116926059.923 7  91111188.60345  22250289.903    22250283.7284
        46.900          32.4004
 132823217.360 6 103498736.75643  25275378.067    25275384.7274
        36.200          18.6004
 114347615.924 8  89102046.52145  21759620.052    21759617.3344
        48.300          34.4004
 113801730.997 8  88676664.09446  21655753.517    21655755.0194
        49.000          36.2004
 112018965.698 8  87287496.59446  21316500.400    21316497.3894
        48.600          38.0004
 120385553.539 7  93806972.17844  22908591.416    22908593.1534
        43.600          26.5004
 127446434.749 6  99308919.09844  24252246.100    24252245.7264
        41.700          24.7004
 12 10 28  0 23  0.0000000  0 11G29G06G22G21G18G31G03G30G16G14G19
 130352853.632 6 101573649.12743  24805328.256    24805331.4004
        39.600          21.8004
 111380844.049 8  86790261.58946  21195065.330    21195060.7374
        48.100          37.4004
 106759259.251 8  83189006.05047  20315609.135    20315600.8494
        50.900          42.4004
 124614659.533 6  97102310.23343  23713381.084    23713376.9014
        37.600          20.9004
 117000984.494 7  91169571.37045  22264547.350    22264541.4084
        45.900          32.2004
 132850637.790 6 103520103.30142  25280596.377    25280602.0414
        37.500          16.9004
 114269574.509 7  89041235.24145  21744768.616    21744766.1334
        47.200          34.2004
 113871642.215 8  88731140.20146  21669057.493    21669058.1744
        48.400          36.1004
 112021391.666 8  87289386.94246  21316961.508    21316958.3804
        49.800          37.9004
 120319029.507 7  93755135.70544  22895932.230    22895932.7944
        43.000          25.8004
 127364016.248 6  99244697.13243  24236561.187    24236562.0444
        39.600          22.3004
 12 10 28  0 23 30.0000000  0 11G29G06G22G21G18G31G03G30G16G14G19
 130427598.089 6 101631891.42543  24819551.774    24819555.2694
        37.900          20.6004
 111324352.356 8  86746242.18546  21184315.056    21184310.5214
        48.100          37.1004
 106775879.107 8  83201956.64547  20318771.785    20318763.8514
        49.900          43.3004
 124653038.903 6  97132216.17543  23720685.457    23720679.9264
        40.600          21.5004
 117076125.375 7  91228122.69145  22278846.928    22278839.9904
        45.600          31.9004
 132877731.830 6 103541215.43242  25285751.978    25285757.7584
        36.200          16.3004
 114191738.632 7  88980584.11545  21729957.341    21729953.6854
        47.900          34.5004
 113941901.797 8  88785887.76446  21682427.795    21682428.7704
        48.200          36.0004
 112024366.662 8  87291705.11246  21317527.540    21317524.7054
        48.700          38.7004
 120252624.392 7  93703391.89844  22883295.922    22883295.1384
        43.800          25.6004
 127281530.734 6  99180422.91543  24220865.732    24220865.6514
        40.600          22.8004
 12 10 28  0 24  0.0000000  0 11G29G06G22G21G18G31G03G30G16G14G19
 130502571.491 6 101690312.08043  24833819.893    24833820.8674
        39.400          21.8004
 111268073.919 8  86702388.95146  21173605.859    21173601.6174
        48.800          37.4004
 106792973.702 8  83215277.16647  20322024.609    20322016.4994
        50.800          42.8004
 124691367.385 6  97162082.50443  23727978.874    23727973.9884
        39.400          22.3004
 117151484.339 7  91286843.94045  22293186.706    22293180.4714
        46.700          31.5004
 132904502.479 5 103562075.55242  25290846.872    25290852.5364
        35.300          14.8004
 114114115.009 7  88920098.38345  21715185.602    21715182.6504
        47.300          34.4004
 114012510.509 8  88840907.37646  21695864.016    21695865.1674
        48.700          36.5004
 112027893.701 8  87294453.45646  21318198.712    21318196.1114
        49.800          37.8004
 120186345.778 7  93651746.66444  22870682.919    22870683.0734
        44.100          26.4004
 127198983.492 6  99116100.64743  24205156.433    24205157.1734
        40.100          22.3004
 12 10 28  0 24 30.0000000  0 11G29G06G22G21G18G31G03G30G16G14G19
 130577766.520 6 101748905.49643  24848128.964    24848130.9934
        38.900          22.2004
 111212004.455 8  86658698.55146  21162935.928    21162931.7454
        49.100          37.4004
 106810535.172 8  83228961.49447  20325367.048    20325358.2934
        51.000          42.4004
 124729638.599 6  97191904.19543  23735261.674    23735257.2564
        39.800          22.3004
 117227052.117 7  91345727.91345  22307566.741    22307560.9754
        46.800          31.4004
 132930942.248 5 103582677.99142  25295879.002    25295884.7824
        32.900          14.8004
 114036699.157 7  88859774.54345  21700453.035    21700450.7284
        47.000          34.7004
 114083458.757 8  88896191.56346  21709365.622    21709366.0704
        49.100          36.4004
 112031966.061 8  87297626.71046  21318974.121    21318971.1104
        49.900          38.3004
 120120189.596 7  93600196.80244  22858094.654    22858094.2224
        44.900          26.9004
 127116368.955 6  99051725.89743  24189435.822    24189435.3314
        41.800          22.8004
 12 10 28  0 25  0.0000000  0 11G29G06G22G21G18G31G03G30G16G14G19
 130653185.609 6 101807673.49243  24862480.198    24862483.3414
        36.800          22.2004
 111156149.250 7  86615175.11946  21152306.812    21152302.4534
        47.300          37.4004
 106828565.435 8  83243011.11647  20328797.454    20328789.2854
        51.400          43.1004
 124767857.145 6  97221684.84643  23742535.048    23742530.2794
        41.000          22.2004
 117302829.979 7  91404775.58145  22321986.558    22321980.5004
        47.300          31.6004
 132957053.443 5 103603024.19742  25300847.278    25300853.1184
        31.900          12.6004
 113959496.823 7  88799617.08545  21685762.163    21685759.3874
        46.700          34.6004
 114154746.772 8  88951740.49646  21722931.327    21722931.9504
        48.000          36.4004
 112036585.909 7  87301226.58746  21319852.996    21319850.3954
        47.700          38.0004
 120054162.209 7  93548747.30044  22845528.409    22845528.5044
        44.700          26.5004
 127033691.761 6  98987302.35144  24173702.702    24173701.8014
        41.800          24.4004
 12 10 28  0 25 30.0000000  0 11G29G06G22G21G18G31G03G30G16G14G19
 130728828.776 5 101866616.05443  24876873.461    24876878.1864
        35.700          20.9004
 111100511.096 8  86571820.81546  21141719.125    21141714.1804
        48.000          37.7004
 106847063.447 8  83257425.22547  20332317.750    20332309.6404
        50.800          42.6004
 124806022.909 6  97251424.33743  23749797.130    23749792.5374
        40.900          22.6004
 117378816.094 7  91463985.51745  22336446.050    22336440.8714
        46.100          31.2004
 132982835.412 4 103623114.02442  25305752.410    25305759.3634
        29.400          13.9004
 113882511.042 7  88739628.37245  21671111.944    21671110.1054
        46.000          34.2004
 114226372.055 8  89007552.24346  21736561.277    21736562.2524
        48.700          36.0004
 112041753.333 8  87305253.13846  21320835.859    21320833.7274
        48.100          38.2004
 119988266.922 7  93497400.71544  22832989.549    22832988.7074
        44.400          26.8004
 126950953.626 6  98922831.30044  24157956.289    24157957.4404
        39.400          25.0004
 12 10 28  0 26  0.0000000  0 10G29G06G22G21G18G03G30G16G14G19
 130804694.603 5 101925732.13143  24891311.623    24891314.6494
        35.300          18.6004
 111045091.111 7  86528636.49946  21131172.954    21131168.2444
        47.300          37.7004
 106866027.162 8  83272202.21647  20335926.212    20335918.2784
        51.100          42.7004
 124844136.129 6  97281122.91443  23757049.767    23757045.6434
        40.700          22.6004
 117455007.410 7  91523355.36345  22350944.989    22350939.2824
        47.200          31.2004
 113805743.169 7  88679809.45245  21656503.330    21656500.7884
        46.600          34.2004
 114298330.706 8  89063623.75146  21750254.563    21750255.7134
        48.500          36.9004
 112047466.640 7  87309705.04746  21321923.599    21321920.3544
        47.900          37.8004
 119922505.798 7  93446158.67744  22820474.281    22820474.1424
        44.100          26.6004
